[{"address":"河南省郑州市管城回族区陇海东路306号","areaName":"","city":"郑州市","company":"郑州源丰商务酒店充电站","connectorType":1,"currentType":2,"freeNum":0,"id":"f1f3b605-4434-47e6-8c00-e1f85343a611","images":null,"isGs":0,"lat":34.738568,"link":0,"lng":113.688335,"mapIcon":"","maxOutPower":0,"operatorTypes":"4","payType":"","phone":"","plugType":2,"priceRational":999999,"province":"河南省","quantity":2,"score":0,"serviceCode":0,"standard":1,"status":0,"supportOrder":0},{"address":"河南省郑州市金水区红专路109号","areaName":"","city":"郑州市","company":"郑州金成商务大厦充电站","connectorType":1,"currentType":3,"freeNum":0,"id":"c4fb8cdb-d49d-43a1-bd53-7434ae07d42a","images":null,"isGs":0,"lat":34.7798,"link":0,"lng":113.69885,"mapIcon":"","maxOutPower":0,"operatorTypes":"4","payType":"","phone":"","plugType":2,"priceRational":999999,"province":"河南省","quantity":2,"score":0,"serviceCode":0,"standard":1,"status":0,"supportOrder":0},{"address":"河南省郑州市金水区英协路56号","areaName":"","city":"郑州市","company":"郑州天泰轩酒店充电站","connectorType":1,"currentType":3,"freeNum":0,"id":"44c23c46-0042-4656-a97a-80409f58fe48","images":null,"isGs":0,"lat":34.755259,"link":0,"lng":113.718085,"mapIcon":"","maxOutPower":0,"operatorTypes":"4","payType":"","phone":"","plugType":2,"priceRational":999999,"province":"河南省","quantity":4,"score":0,"serviceCode":0,"standard":1,"status":0,"supportOrder":0},{"address":"河南省郑州市金水区农业东路与众意西路东南角","areaName":"","city":"郑州市","company":"郑州熙地港B1充电站","connectorType":1,"currentType":3,"freeNum":0,"id":"07318178-74e0-478f-8a4f-0092a654f531","images":null,"isGs":0,"lat":34.785503,"link":0,"lng":113.716878,"mapIcon":"","maxOutPower":0,"operatorTypes":"4","payType":"","phone":"","plugType":2,"priceRational":999999,"province":"河南省","quantity":14,"score":0,"serviceCode":0,"standard":1,"status":0,"supportOrder":0},{"address":"河南省郑州市金水区农业东路与众意西路东南角","areaName":"","city":"郑州市","company":"郑州熙地港B2充电站","connectorType":1,"currentType":3,"freeNum":0,"id":"c449f2fa-6ecb-4a54-b6dd-18083f6cb26e","images":null,"isGs":0,"lat":34.7849,"link":0,"lng":113.717235,"mapIcon":"","maxOutPower":0,"operatorTypes":"4","payType":"","phone":"","plugType":2,"priceRational":999999,"province":"河南省","quantity":8,"score":0,"serviceCode":0,"standard":1,"status":0,"supportOrder":0},{"address":"河南省郑州市金水区农业东路与众意西路东南角","areaName":"","city":"郑州市","company":"郑州熙地港B3充电站","connectorType":1,"currentType":3,"freeNum":0,"id":"a8a1d633-d2a8-446b-81a5-29be85afb6fa","images":null,"isGs":0,"lat":34.784882,"link":0,"lng":113.718443,"mapIcon":"","maxOutPower":0,"operatorTypes":"4","payType":"","phone":"","plugType":2,"priceRational":999999,"province":"河南省","quantity":12,"score":0,"serviceCode":0,"standard":1,"status":0,"supportOrder":0},{"address":"河南省郑州市管城回族区商都路与七里河南路交叉口向南100米","areaName":"","city":"郑州市","company":"郑州银河国际酒店充电站","connectorType":1,"currentType":3,"freeNum":0,"id":"fc3970e0-0ef2-47df-9c25-9bb24f2daf9b","images":null,"isGs":0,"lat":34.746789,"link":0,"lng":113.74184,"mapIcon":"","maxOutPower":0,"operatorTypes":"4","payType":"","phone":"","plugType":2,"priceRational":999999,"province":"河南省","quantity":7,"score":0,"serviceCode":0,"standard":1,"status":0,"supportOrder":0},{"address":"河南省郑州市管城回族区文兴路与鼎尚街交汇处嘉祥城","areaName":"","city":"郑州市","company":"郑州嘉祥城科技园充电站","connectorType":1,"currentType":3,"freeNum":0,"id":"0f62467d-061d-4485-96a2-66c944ed1624","images":null,"isGs":0,"lat":34.689335,"link":0,"lng":113.719226,"mapIcon":"","maxOutPower":0,"operatorTypes":"4","payType":"","phone":"","plugType":2,"priceRational":999999,"province":"河南省","quantity":14,"score":0,"serviceCode":0,"standard":1,"status":0,"supportOrder":0},{"address":"河南省郑州市管城回族区经南二路13号","areaName":"","city":"郑州市","company":"郑州颐舍酒店充电站","connectorType":1,"currentType":1,"freeNum":0,"id":"64a1bf8d-4062-4f25-aa54-0fb651a772f0","images":null,"isGs":0,"lat":34.717559,"link":0,"lng":113.756585,"mapIcon":"","maxOutPower":0,"operatorTypes":"4","payType":"","phone":"","plugType":2,"priceRational":999999,"province":"河南省","quantity":1,"score":0,"serviceCode":0,"standard":1,"status":0,"supportOrder":0},{"address":"河南省郑州市金水区金水东路85号雅宝东方国际广场","areaName":"","city":"郑州市","company":"郑州东方国际广场充电站","connectorType":1,"currentType":3,"freeNum":0,"id":"e1635e81-98bf-4db3-b289-e87a4177fa5e","images":null,"isGs":0,"lat":34.768872,"link":0,"lng":113.771677,"mapIcon":"","maxOutPower":0,"operatorTypes":"4","payType":"","phone":"","plugType":2,"priceRational":999999,"province":"河南省","quantity":14,"score":0,"serviceCode":0,"standard":1,"status":0,"supportOrder":0},{"address":"河南省郑州市惠济区花园路与开元路交叉口南50米路西河南省汽车贸易中心","areaName":"","city":"郑州市","company":"郑州长安汽车新能源充电站","connectorType":1,"currentType":3,"freeNum":0,"id":"c1180552-92f7-4ede-8dea-99ed4fcbda1e","images":null,"isGs":0,"lat":34.863966,"link":0,"lng":113.673997,"mapIcon":"","maxOutPower":0,"operatorTypes":"4","payType":"","phone":"","plugType":2,"priceRational":999999,"province":"河南省","quantity":3,"score":0,"serviceCode":0,"standard":1,"status":0,"supportOrder":0},{"address":"河南省郑州市惠济区迎宾路1号","areaName":"","city":"郑州市","company":"河南省黄河迎宾馆充电站","connectorType":1,"currentType":3,"freeNum":0,"id":"590ae204-1dbe-45b9-b53d-bb33a410e564","images":null,"isGs":0,"lat":34.872085,"link":0,"lng":113.648794,"mapIcon":"","maxOutPower":0,"operatorTypes":"4","payType":"","phone":"","plugType":2,"priceRational":999999,"province":"河南省","quantity":18,"score":0,"serviceCode":0,"standard":1,"status":0,"supportOrder":0},{"address":"河南省郑州市管城回族区博学路与陇海路交汇处西北侧50米","areaName":"","city":"郑州市","company":"郑州乘用车运营充电站","connectorType":1,"currentType":3,"freeNum":0,"id":"26235c1c-f8cb-41a7-883f-a8ea25d6dfae","images":null,"isGs":0,"lat":34.738248,"link":0,"lng":113.793275,"mapIcon":"","maxOutPower":0,"operatorTypes":"4","payType":"","phone":"","plugType":2,"priceRational":999999,"province":"河南省","quantity":18,"score":0,"serviceCode":0,"standard":1,"status":0,"supportOrder":0},{"address":"河南省郑州市管城回族区商都路166号郑东新区电子商务大厦","areaName":"","city":"郑州市","company":"郑东新区电子商务大厦充电站","connectorType":1,"currentType":3,"freeNum":0,"id":"bceeda8a-ac99-4d08-ae32-5193452525b5","images":null,"isGs":0,"lat":34.74122,"link":0,"lng":113.808389,"mapIcon":"","maxOutPower":0,"operatorTypes":"4","payType":"","phone":"","plugType":2,"priceRational":999999,"province":"河南省","quantity":10,"score":0,"serviceCode":0,"standard":1,"status":0,"supportOrder":0},{"address":"河南省郑州市金水区东四环金水东路向北700米路东花卉创意基地","areaName":"","city":"郑州市","company":"郑州特色花卉市场充电站","connectorType":1,"currentType":3,"freeNum":0,"id":"b2156dbe-ba6b-4b62-a260-d0cec8016f62","images":null,"isGs":0,"lat":34.782268,"link":0,"lng":113.827227,"mapIcon":"","maxOutPower":0,"operatorTypes":"4","payType":"","phone":"","plugType":2,"priceRational":999999,"province":"河南省","quantity":14,"score":0,"serviceCode":0,"standard":1,"status":0,"supportOrder":0},{"address":"河南省郑州市管城回族区南三环第二十二街向南100米路西","areaName":"","city":"郑州市","company":"郑州经开区中航之星充电站","connectorType":1,"currentType":3,"freeNum":0,"id":"347f5e69-ab9f-4706-86fd-fe81b61ba2e5","images":null,"isGs":0,"lat":34.69782,"link":0,"lng":113.832961,"mapIcon":"","maxOutPower":0,"operatorTypes":"4","payType":"","phone":"","plugType":2,"priceRational":999999,"province":"河南省","quantity":8,"score":0,"serviceCode":0,"standard":1,"status":0,"supportOrder":0},{"address":"河南省郑州市新郑市郑新路与泰山路交叉口西200米路南","areaName":"","city":"郑州市","company":"北汽新能源天之悦充电站","connectorType":1,"currentType":1,"freeNum":0,"id":"434fa233-b1bb-45ba-bebd-339da5e1dbb8","images":null,"isGs":0,"lat":34.591705,"link":0,"lng":113.719666,"mapIcon":"","maxOutPower":0,"operatorTypes":"4","payType":"","phone":"","plugType":2,"priceRational":999999,"province":"河南省","quantity":2,"score":0,"serviceCode":0,"standard":1,"status":0,"supportOrder":0},{"address":"河南省郑州市新郑市迎宾大道新郑机场迎宾路1号","areaName":"","city":"郑州市","company":"郑州新郑机场凯芙国际饭店充电站","connectorType":1,"currentType":3,"freeNum":0,"id":"9d86b884-cf8b-415f-8f1b-f800d7971463","images":null,"isGs":0,"lat":34.530025,"link":0,"lng":113.843991,"mapIcon":"","maxOutPower":0,"operatorTypes":"4","payType":"","phone":"","plugType":2,"priceRational":999999,"province":"河南省","quantity":10,"score":0,"serviceCode":0,"standard":1,"status":0,"supportOrder":0},{"address":"河南省郑州市新郑市金港大道和美港路往东200米路北","areaName":"","city":"郑州市","company":"郑州鑫宇假日酒店充电站","connectorType":1,"currentType":3,"freeNum":0,"id":"bb63a669-959c-42a4-93fc-114d8965afee","images":null,"isGs":0,"lat":34.511723,"link":0,"lng":113.819005,"mapIcon":"","maxOutPower":0,"operatorTypes":"4","payType":"","phone":"","plugType":2,"priceRational":999999,"province":"河南省","quantity":9,"score":0,"serviceCode":0,"standard":1,"status":0,"supportOrder":0},{"address":"河南省郑州市中牟县北环路与深发路交叉口向北60米路西","areaName":"","city":"郑州市","company":"郑州明道汽车销售充电站","connectorType":1,"currentType":3,"freeNum":0,"id":"628f1a26-fdfc-476b-8d81-093a48566996","images":null,"isGs":0,"lat":34.734566,"link":0,"lng":114.02371,"mapIcon":"","maxOutPower":0,"operatorTypes":"4","payType":"","phone":"","plugType":2,"priceRational":999999,"province":"河南省","quantity":5,"score":0,"serviceCode":0,"standard":1,"status":0,"supportOrder":0},{"address":"河南省郑州市新密市郑州市新密市西大街与平安路交汇处向北200米路东","areaName":"","city":"郑州市","company":"新密鑫海湾假日酒店充电站","connectorType":1,"currentType":3,"freeNum":0,"id":"0762343a-d3f6-423e-80c3-f0b4af252526","images":null,"isGs":0,"lat":34.537939,"link":0,"lng":113.35734,"mapIcon":"","maxOutPower":0,"operatorTypes":"4","payType":"","phone":"","plugType":2,"priceRational":999999,"province":"河南省","quantity":8,"score":0,"serviceCode":0,"standard":1,"status":0,"supportOrder":0},{"address":"河南省郑州市新密市西大街88号","areaName":"","city":"郑州市","company":"郑州承誉德大酒店充电站","connectorType":1,"currentType":3,"freeNum":0,"id":"b475e3da-15cf-4f54-b03e-8211c01a6ec2","images":null,"isGs":0,"lat":34.535789,"link":0,"lng":113.35066,"mapIcon":"","maxOutPower":0,"operatorTypes":"4","payType":"","phone":"","plugType":2,"priceRational":999999,"province":"河南省","quantity":19,"score":0,"serviceCode":0,"standard":1,"status":0,"supportOrder":0},{"address":"河南省郑州市中牟县三官庙乡S223与S102交叉口向东300米路北","areaName":"","city":"郑州市","company":"郑州瑞森新能源汽销充电站","connectorType":1,"currentType":3,"freeNum":0,"id":"b7bb3848-97e2-4fd0-9097-f5c3fed699d6","images":null,"isGs":0,"lat":34.508681,"link":0,"lng":113.919545,"mapIcon":"","maxOutPower":0,"operatorTypes":"4","payType":"","phone":"","plugType":2,"priceRational":999999,"province":"河南省","quantity":3,"score":0,"serviceCode":0,"standard":1,"status":0,"supportOrder":0},{"address":"河南省郑州市新郑市郑新路北段491号","areaName":"","city":"郑州市","company":"新郑通达汽车广场充电站","connectorType":1,"currentType":1,"freeNum":0,"id":"2c46fc0e-1878-4e14-95fe-e027ad2f9cee","images":null,"isGs":0,"lat":34.428656,"link":0,"lng":113.729968,"mapIcon":"","maxOutPower":0,"operatorTypes":"4","payType":"","phone":"","plugType":2,"priceRational":999999,"province":"河南省","quantity":4,"score":0,"serviceCode":0,"standard":1,"status":0,"supportOrder":0},{"address":"河南省新乡市新乡县河南省新乡市小冀镇新龙路与中联路交叉口西南角","areaName":"","city":"新乡市","company":"新乡广乐假日酒店充电站","connectorType":1,"currentType":2,"freeNum":0,"id":"19877c30-3fc5-44bf-8dac-74a97f9c674b","images":null,"isGs":0,"lat":35.172513,"link":0,"lng":113.771323,"mapIcon":"","maxOutPower":0,"operatorTypes":"4","payType":"","phone":"","plugType":2,"priceRational":999999,"province":"河南省","quantity":4,"score":0,"serviceCode":0,"standard":1,"status":0,"supportOrder":0},{"address":"河南省新乡市新乡县河南省新乡县小冀镇香港路南段","areaName":"","city":"新乡市","company":"新乡京华养生苑充电站","connectorType":1,"currentType":2,"freeNum":0,"id":"088262cb-c29b-461f-b952-44b55268877f","images":null,"isGs":0,"lat":35.187309,"link":0,"lng":113.78239,"mapIcon":"","maxOutPower":0,"operatorTypes":"4","payType":"","phone":"","plugType":2,"priceRational":999999,"province":"河南省","quantity":5,"score":0,"serviceCode":0,"standard":1,"status":0,"supportOrder":0},{"address":"河南省新乡市新乡县小冀镇京华园西侧100米路南","areaName":"","city":"新乡市","company":"新乡京华矿泉度假村充电站","connectorType":1,"currentType":2,"freeNum":0,"id":"3cd77c5a-370f-437b-b18c-566c96b30f5d","images":null,"isGs":0,"lat":35.189112,"link":0,"lng":113.782573,"mapIcon":"","maxOutPower":0,"operatorTypes":"4","payType":"","phone":"","plugType":2,"priceRational":999999,"province":"河南省","quantity":6,"score":0,"serviceCode":0,"standard":1,"status":0,"supportOrder":0},{"address":"河南省新乡市新乡县河南省新乡县青年路中段与冀中路交叉口东北角","areaName":"","city":"新乡市","company":"新乡京华园宾馆充电站","connectorType":1,"currentType":2,"freeNum":0,"id":"7dc7ad06-f15c-441b-961b-2ab46d67fe2f","images":null,"isGs":0,"lat":35.191164,"link":0,"lng":113.78596,"mapIcon":"","maxOutPower":0,"operatorTypes":"4","payType":"","phone":"","plugType":2,"priceRational":999999,"province":"河南省","quantity":6,"score":0,"serviceCode":0,"standard":1,"status":0,"supportOrder":0},{"address":"河南省新乡市新乡县经济开发区中央大道56号(许庄十字路口向北800米)路西","areaName":"","city":"新乡市","company":"新乡中州颐和酒店充电站","connectorType":1,"currentType":2,"freeNum":0,"id":"e4cf11a7-d3bc-4787-8770-1f6f3c4eca75","images":null,"isGs":0,"lat":35.20762,"link":0,"lng":113.798191,"mapIcon":"","maxOutPower":0,"operatorTypes":"4","payType":"","phone":"","plugType":2,"priceRational":999999,"province":"河南省","quantity":3,"score":0,"serviceCode":0,"standard":1,"status":0,"supportOrder":0},{"address":"河南省新乡市新乡县新飞大道南段与107国道交叉口西北角107汽车城院内","areaName":"","city":"新乡市","company":"新乡107汽车城北汽充电站","connectorType":1,"currentType":1,"freeNum":0,"id":"173de4b5-b78a-40b0-af57-32007a5e76d3","images":null,"isGs":0,"lat":35.217095,"link":0,"lng":113.898884,"mapIcon":"","maxOutPower":0,"operatorTypes":"4","payType":"","phone":"","plugType":2,"priceRational":999999,"province":"河南省","quantity":2,"score":0,"serviceCode":0,"standard":1,"status":0,"supportOrder":0},{"address":"河南省新乡市卫滨区西环与黄河大道交叉口向东100米路南","areaName":"","city":"新乡市","company":"新乡市朱召市场充电站","connectorType":1,"currentType":2,"freeNum":0,"id":"f5084099-6fdc-4132-9b37-3067bd9059c0","images":null,"isGs":0,"lat":35.266455,"link":0,"lng":113.854528,"mapIcon":"","maxOutPower":0,"operatorTypes":"4","payType":"","phone":"","plugType":2,"priceRational":999999,"province":"河南省","quantity":6,"score":0,"serviceCode":0,"standard":1,"status":0,"supportOrder":0},{"address":"河南省新乡市红旗区新乡市海河路与牧野大道交叉口向北20米路西","areaName":"","city":"新乡市","company":"新乡市黄金时代充电站","connectorType":1,"currentType":3,"freeNum":0,"id":"b8ed8967-849f-4dd7-9357-155f8d02ec13","images":null,"isGs":0,"lat":35.249981,"link":0,"lng":113.91137,"mapIcon":"","maxOutPower":0,"operatorTypes":"4","payType":"","phone":"","plugType":2,"priceRational":999999,"province":"河南省","quantity":5,"score":0,"serviceCode":0,"standard":1,"status":0,"supportOrder":0},{"address":"河南省开封市开封市市辖区S219(金明大道)河南省开封市市辖区S219(金明大道)","areaName":"","city":"开封市","company":"开封龙成御苑小区充电站","connectorType":1,"currentType":3,"freeNum":0,"id":"73a94b57-254f-4400-b412-98b8393423b0","images":null,"isGs":0,"lat":34.766333,"link":0,"lng":114.299256,"mapIcon":"","maxOutPower":0,"operatorTypes":"4","payType":"","phone":"","plugType":2,"priceRational":999999,"province":"河南省","quantity":5,"score":0,"serviceCode":0,"standard":1,"status":0,"supportOrder":0},{"address":"河南省郑州市巩义市河洛路与石河路交叉口北20号","areaName":"","city":"郑州市","company":"巩义怡诚商务酒店充电站","connectorType":1,"currentType":3,"freeNum":0,"id":"0e2dde69-20d2-488c-9fbd-759624b34044","images":null,"isGs":0,"lat":34.765017,"link":0,"lng":112.991826,"mapIcon":"","maxOutPower":0,"operatorTypes":"4","payType":"","phone":"","plugType":2,"priceRational":999999,"province":"河南省","quantity":6,"score":0,"serviceCode":0,"standard":1,"status":0,"supportOrder":0},{"address":"河南省开封市开封市市辖区大梁路西段6号河南省开封市市辖区大梁路与夷山大道交汇向西100米路北小宋城停车场东北角","areaName":"","city":"开封市","company":"开封市大梁路小宋城充电站","connectorType":1,"currentType":3,"freeNum":0,"id":"c0eb368c-ce0e-48c3-9800-db67cffa6b1b","images":null,"isGs":0,"lat":34.802682,"link":0,"lng":114.310395,"mapIcon":"","maxOutPower":0,"operatorTypes":"4","payType":"","phone":"","plugType":2,"priceRational":999999,"province":"河南省","quantity":6,"score":0,"serviceCode":0,"standard":1,"status":0,"supportOrder":0},{"address":"河南省新乡市红旗区道清路与牧野路交叉口西北角","areaName":"","city":"新乡市","company":"新乡市新飞花园南充电站","connectorType":1,"currentType":3,"freeNum":0,"id":"14164ff7-e94f-4784-9bde-baf90c8bac12","images":null,"isGs":0,"lat":35.270327,"link":0,"lng":113.908416,"mapIcon":"","maxOutPower":0,"operatorTypes":"4","payType":"","phone":"","plugType":2,"priceRational":999999,"province":"河南省","quantity":7,"score":0,"serviceCode":0,"standard":1,"status":0,"supportOrder":0},{"address":"河南省新乡市红旗区新乡市道清路与牧野路交叉口西北角","areaName":"","city":"新乡市","company":"新乡市新飞花园北充电站","connectorType":1,"currentType":2,"freeNum":0,"id":"ecf5d990-7deb-4aa3-8eec-fb1be835b32d","images":null,"isGs":0,"lat":35.273587,"link":0,"lng":113.907895,"mapIcon":"","maxOutPower":0,"operatorTypes":"4","payType":"","phone":"","plugType":2,"priceRational":999999,"province":"河南省","quantity":6,"score":0,"serviceCode":0,"standard":1,"status":0,"supportOrder":0},{"address":"河南省新乡市红旗区洪门社区2号楼东南54米","areaName":"","city":"新乡市","company":"新乡市洪门新村充电站","connectorType":1,"currentType":2,"freeNum":0,"id":"0bac1874-25c2-4bc7-ad29-89372a8824bf","images":null,"isGs":0,"lat":35.264516,"link":0,"lng":113.93455,"mapIcon":"","maxOutPower":0,"operatorTypes":"4","payType":"","phone":"","plugType":2,"priceRational":999999,"province":"河南省","quantity":3,"score":0,"serviceCode":0,"standard":1,"status":0,"supportOrder":0},{"address":"河南省新乡市红旗区新乡市新一街与道清路交叉口向北200米路东","areaName":"","city":"新乡市","company":"新乡市2号创业园充电站","connectorType":1,"currentType":3,"freeNum":0,"id":"1698d759-43d6-4ef2-9cdf-d05dc33a60d9","images":null,"isGs":0,"lat":35.270915,"link":0,"lng":113.918484,"mapIcon":"","maxOutPower":0,"operatorTypes":"4","payType":"","phone":"","plugType":2,"priceRational":999999,"province":"河南省","quantity":7,"score":0,"serviceCode":0,"standard":1,"status":0,"supportOrder":0},{"address":"河南省新乡市红旗区S227S227","areaName":"","city":"新乡市","company":"新乡崇文社区充电站","connectorType":1,"currentType":2,"freeNum":0,"id":"4e077550-6930-4aa7-8b3f-996f801c058e","images":null,"isGs":0,"lat":35.25465,"link":0,"lng":113.965244,"mapIcon":"","maxOutPower":0,"operatorTypes":"4","payType":"","phone":"","plugType":2,"priceRational":999999,"province":"河南省","quantity":6,"score":0,"serviceCode":0,"standard":1,"status":0,"supportOrder":0},{"address":"河南省郑州市登封市少林大道与天中大道交汇处","areaName":"","city":"郑州市","company":"登封豪邸假日酒店充电站","connectorType":1,"currentType":3,"freeNum":0,"id":"bb9e7e32-ef90-4ecb-a522-622a46332b31","images":null,"isGs":0,"lat":34.453835,"link":0,"lng":113.093025,"mapIcon":"","maxOutPower":0,"operatorTypes":"4","payType":"","phone":"","plugType":2,"priceRational":999999,"province":"河南省","quantity":12,"score":0,"serviceCode":0,"standard":1,"status":0,"supportOrder":0},{"address":"河南省新乡市红旗区和平路37号","areaName":"","city":"新乡市","company":"新乡市和平路唱响充电站","connectorType":1,"currentType":3,"freeNum":0,"id":"4524b93d-075b-41ad-a284-44e129a2cd2d","images":null,"isGs":0,"lat":35.29236,"link":0,"lng":113.888104,"mapIcon":"","maxOutPower":0,"operatorTypes":"4","payType":"","phone":"","plugType":2,"priceRational":999999,"province":"河南省","quantity":7,"score":0,"serviceCode":0,"standard":1,"status":0,"supportOrder":0},{"address":"河南省新乡市红旗区金穗大道与新飞大道交叉口","areaName":"","city":"新乡市","company":"新乡富达广场东站充电站","connectorType":1,"currentType":3,"freeNum":0,"id":"3c2f1436-9d45-4f7b-a40b-2b0583865f2c","images":null,"isGs":0,"lat":35.296599,"link":0,"lng":113.901033,"mapIcon":"","maxOutPower":0,"operatorTypes":"4","payType":"","phone":"","plugType":2,"priceRational":999999,"province":"河南省","quantity":7,"score":0,"serviceCode":0,"standard":1,"status":0,"supportOrder":0},{"address":"河南省新乡市红旗区新乡市向阳路与东明大道交叉口西南角","areaName":"","city":"新乡市","company":"新乡诚城紫钰充电站","connectorType":1,"currentType":2,"freeNum":0,"id":"520e22be-56ed-4767-ad05-304cf6a86e34","images":null,"isGs":0,"lat":35.286344,"link":0,"lng":113.942067,"mapIcon":"","maxOutPower":0,"operatorTypes":"4","payType":"","phone":"","plugType":2,"priceRational":999999,"province":"河南省","quantity":4,"score":0,"serviceCode":0,"standard":1,"status":0,"supportOrder":0},{"address":"河南省新乡市红旗区河南省新乡市红旗区","areaName":"","city":"新乡市","company":"新乡诚城常青藤充电站","connectorType":1,"currentType":2,"freeNum":0,"id":"4f197ca8-b272-4e91-aa31-09039a070b63","images":null,"isGs":0,"lat":35.286101,"link":0,"lng":113.947849,"mapIcon":"","maxOutPower":0,"operatorTypes":"4","payType":"","phone":"","plugType":2,"priceRational":999999,"province":"河南省","quantity":6,"score":0,"serviceCode":0,"standard":1,"status":0,"supportOrder":0},{"address":"河南省郑州市登封市大禹路与崇福路向西50米路北","areaName":"","city":"郑州市","company":"登封格林酒店充电站","connectorType":1,"currentType":3,"freeNum":0,"id":"07c254fb-ad8f-4efc-8139-01c0adbf1bae","images":null,"isGs":0,"lat":34.468619,"link":0,"lng":113.045851,"mapIcon":"","maxOutPower":0,"operatorTypes":"4","payType":"","phone":"","plugType":2,"priceRational":999999,"province":"河南省","quantity":10,"score":0,"serviceCode":0,"standard":1,"status":0,"supportOrder":0},{"address":"河南省新乡市牧野区北环路辅路","areaName":"","city":"新乡市","company":"新乡新奥燃气北环充电站","connectorType":1,"currentType":1,"freeNum":0,"id":"779d2795-e191-4d04-aebc-5b7fad571c50","images":null,"isGs":0,"lat":35.328828,"link":0,"lng":113.816685,"mapIcon":"","maxOutPower":0,"operatorTypes":"4","payType":"","phone":"","plugType":2,"priceRational":999999,"province":"河南省","quantity":3,"score":0,"serviceCode":0,"standard":1,"status":0,"supportOrder":0},{"address":"河南省新乡市延津县河南省新乡市延津县平安大道与西安大道交叉口向东50米路北","areaName":"","city":"新乡市","company":"新乡市延津县司法局充电站","connectorType":1,"currentType":2,"freeNum":0,"id":"1e2bd037-c93c-42ab-82bf-e03e4414a951","images":null,"isGs":0,"lat":35.165917,"link":0,"lng":114.196274,"mapIcon":"","maxOutPower":0,"operatorTypes":"4","payType":"","phone":"","plugType":2,"priceRational":999999,"province":"河南省","quantity":6,"score":0,"serviceCode":0,"standard":1,"status":0,"supportOrder":0},{"address":"河南省新乡市延津县S308河南省新乡市延津县新长北线与经四路交叉口向东200米路北","areaName":"","city":"新乡市","company":"新乡市温泉会议中心充电站","connectorType":1,"currentType":2,"freeNum":0,"id":"b0ec9711-bbdd-467d-a9b9-f3ca641484e7","images":null,"isGs":0,"lat":35.291168,"link":0,"lng":114.049058,"mapIcon":"","maxOutPower":0,"operatorTypes":"4","payType":"","phone":"","plugType":2,"priceRational":999999,"province":"河南省","quantity":6,"score":0,"serviceCode":0,"standard":1,"status":0,"supportOrder":0},{"address":"河南省郑州市登封市禅宗少林音乐大典B区北侧","areaName":"","city":"郑州市","company":"登封少林音乐大典充电站","connectorType":1,"currentType":3,"freeNum":0,"id":"a5499432-0790-4782-9395-e187d33a2b79","images":null,"isGs":0,"lat":34.478777,"link":0,"lng":112.974066,"mapIcon":"","maxOutPower":0,"operatorTypes":"4","payType":"","phone":"","plugType":2,"priceRational":999999,"province":"河南省","quantity":8,"score":0,"serviceCode":0,"standard":1,"status":0,"supportOrder":0},{"address":"河南省郑州市登封市三王庄村牛家河梦禹溪山庄","areaName":"","city":"郑州市","company":"郑州登封梦禹溪山庄充电站","connectorType":1,"currentType":3,"freeNum":0,"id":"4d3980e0-da3f-4ec6-9a12-861ba2e53bba","images":null,"isGs":0,"lat":34.445683,"link":0,"lng":112.960251,"mapIcon":"","maxOutPower":0,"operatorTypes":"4","payType":"","phone":"","plugType":2,"priceRational":999999,"province":"河南省","quantity":3,"score":0,"serviceCode":0,"standard":1,"status":0,"supportOrder":0},{"address":"河南省新乡市凤泉区区府路文化广场","areaName":"","city":"新乡市","company":"新乡市泰德健身中心充电站","connectorType":1,"currentType":2,"freeNum":0,"id":"d5625544-2807-492c-8726-cef6ecf87135","images":null,"isGs":0,"lat":35.381965,"link":0,"lng":113.914578,"mapIcon":"","maxOutPower":0,"operatorTypes":"4","payType":"","phone":"","plugType":2,"priceRational":999999,"province":"河南省","quantity":6,"score":0,"serviceCode":0,"standard":1,"status":0,"supportOrder":0},{"address":"河南省新乡市封丘县世纪大道183号电子商务产业园区","areaName":"","city":"新乡市","company":"新乡封丘电商孵化园充电站","connectorType":1,"currentType":3,"freeNum":0,"id":"cf958ffd-535b-4227-ae0b-b5490da123a2","images":null,"isGs":0,"lat":35.054316,"link":0,"lng":114.409446,"mapIcon":"","maxOutPower":0,"operatorTypes":"4","payType":"","phone":"","plugType":2,"priceRational":999999,"province":"河南省","quantity":8,"score":0,"serviceCode":0,"standard":1,"status":0,"supportOrder":0},{"address":"河南省新乡市辉县市辉县市共城路和军民共建路交叉口向北400米路西","areaName":"","city":"新乡市","company":"新乡辉县政府办公楼充电站","connectorType":1,"currentType":3,"freeNum":0,"id":"1da33de0-d844-4ec3-af0c-ad3d07202a7f","images":null,"isGs":0,"lat":35.472572,"link":0,"lng":113.779201,"mapIcon":"","maxOutPower":0,"operatorTypes":"4","payType":"","phone":"","plugType":2,"priceRational":999999,"province":"河南省","quantity":7,"score":0,"serviceCode":0,"standard":1,"status":0,"supportOrder":0},{"address":"河南省许昌市魏都区河南省许昌市魏都区","areaName":"","city":"许昌市","company":"许昌南海雅苑小区充电站","connectorType":1,"currentType":2,"freeNum":0,"id":"7d756563-228f-4d3a-9bf5-4a7d8cc0635f","images":null,"isGs":0,"lat":34.049982,"link":0,"lng":113.840039,"mapIcon":"","maxOutPower":0,"operatorTypes":"4","payType":"","phone":"","plugType":2,"priceRational":999999,"province":"河南省","quantity":5,"score":0,"serviceCode":0,"standard":1,"status":0,"supportOrder":0},{"address":"河南省许昌市魏都区八一路与八龙路交叉口向西200米路北河湾新家园","areaName":"","city":"许昌市","company":"许昌河湾新家园充电站","connectorType":1,"currentType":2,"freeNum":0,"id":"c9aa5704-f7ca-41d0-b5d1-03bae3fa6d0f","images":null,"isGs":0,"lat":34.040655,"link":0,"lng":113.84193,"mapIcon":"","maxOutPower":0,"operatorTypes":"4","payType":"","phone":"","plugType":2,"priceRational":999999,"province":"河南省","quantity":4,"score":0,"serviceCode":0,"standard":1,"status":0,"supportOrder":0},{"address":"河南省新乡市辉县市五龙山·响水河水上乐园西187米","areaName":"","city":"新乡市","company":"新乡五龙山度假村充电站","connectorType":1,"currentType":2,"freeNum":0,"id":"6f572e1d-c69f-4a1b-8f4b-4b2cf0268e5d","images":null,"isGs":0,"lat":35.493559,"link":0,"lng":113.868643,"mapIcon":"","maxOutPower":0,"operatorTypes":"4","payType":"","phone":"","plugType":2,"priceRational":999999,"province":"河南省","quantity":6,"score":0,"serviceCode":0,"standard":1,"status":0,"supportOrder":0},{"address":"河南省新乡市长垣县长城大道建蒲桥西20米路北","areaName":"","city":"新乡市","company":"新乡长垣知豆汽车充电站","connectorType":1,"currentType":2,"freeNum":0,"id":"8e5d2a6c-976e-42fe-990a-3465a0d2dd78","images":null,"isGs":0,"lat":35.204256,"link":0,"lng":114.68965,"mapIcon":"","maxOutPower":0,"operatorTypes":"4","payType":"","phone":"","plugType":2,"priceRational":999999,"province":"河南省","quantity":3,"score":0,"serviceCode":0,"standard":1,"status":0,"supportOrder":0},{"address":"河南省洛阳市洛龙区古城东路塘坊街北源流汽车园区","areaName":"","city":"洛阳市","company":"洛阳源流汽车充电站","connectorType":1,"currentType":3,"freeNum":0,"id":"2aabd574-0108-451e-aca8-42e5ad0fc588","images":null,"isGs":0,"lat":34.6331,"link":0,"lng":112.4878,"mapIcon":"","maxOutPower":0,"operatorTypes":"4","payType":"","phone":"","plugType":2,"priceRational":999999,"province":"河南省","quantity":6,"score":0,"serviceCode":0,"standard":1,"status":0,"supportOrder":0},{"address":"河南省新乡市长垣县长垣县蒲城大道和北关大街交叉口向北100米路东","areaName":"","city":"新乡市","company":"长垣二英商贸公司充电站","connectorType":1,"currentType":1,"freeNum":0,"id":"6c1d10af-5499-49bd-b0b4-b8fec7dff003","images":null,"isGs":0,"lat":35.214528,"link":0,"lng":114.699548,"mapIcon":"","maxOutPower":0,"operatorTypes":"4","payType":"","phone":"","plugType":2,"priceRational":999999,"province":"河南省","quantity":5,"score":0,"serviceCode":0,"standard":1,"status":0,"supportOrder":0},{"address":"河南省洛阳市洛龙区开元大道286号","areaName":"","city":"洛阳市","company":"洛阳会展中心充电站","connectorType":1,"currentType":3,"freeNum":0,"id":"f5492d4b-3197-4fd4-9d67-9e4f0af52553","images":null,"isGs":0,"lat":34.617313,"link":0,"lng":112.429542,"mapIcon":"","maxOutPower":0,"operatorTypes":"4","payType":"","phone":"","plugType":2,"priceRational":999999,"province":"河南省","quantity":33,"score":0,"serviceCode":0,"standard":1,"status":0,"supportOrder":0},{"address":"河南省洛阳市西工区纱厂西路86号","areaName":"","city":"洛阳市","company":"洛阳德众汽车广场充电站","connectorType":1,"currentType":3,"freeNum":0,"id":"962fb020-f4db-4759-a995-06beabe6b888","images":null,"isGs":0,"lat":34.678749,"link":0,"lng":112.416747,"mapIcon":"","maxOutPower":0,"operatorTypes":"4","payType":"","phone":"","plugType":2,"priceRational":999999,"province":"河南省","quantity":7,"score":0,"serviceCode":0,"standard":1,"status":0,"supportOrder":0},{"address":"河南省安阳市滑县人民路人民路与黄河路交叉口向北100米路西","areaName":"","city":"安阳市","company":"安阳市滑县中航之星充电站","connectorType":1,"currentType":3,"freeNum":0,"id":"dc9d0293-5f17-4ad5-81c8-1a9df3597f45","images":null,"isGs":0,"lat":35.541815,"link":0,"lng":114.515116,"mapIcon":"","maxOutPower":0,"operatorTypes":"4","payType":"","phone":"","plugType":2,"priceRational":999999,"province":"河南省","quantity":4,"score":0,"serviceCode":0,"standard":1,"status":0,"supportOrder":0},{"address":"河南省洛阳市伊川县S252辅路河南省洛阳市伊川县洛阳市伊川县洛栾快道与伊龙路交叉口南200米路西","areaName":"","city":"洛阳市","company":"洛阳伊川县北汽充电站","connectorType":1,"currentType":1,"freeNum":0,"id":"09b259f1-bbd8-44dd-9ea1-88dd6fccd6df","images":null,"isGs":0,"lat":34.408486,"link":0,"lng":112.434341,"mapIcon":"","maxOutPower":0,"operatorTypes":"4","payType":"","phone":"","plugType":2,"priceRational":999999,"province":"河南省","quantity":2,"score":0,"serviceCode":0,"standard":1,"status":0,"supportOrder":0},{"address":"河南省平顶山市湛河区神马大道与新华路交叉口向东270米路南","areaName":"","city":"平顶山市","company":"平顶山蔚蓝新能源充电站","connectorType":1,"currentType":1,"freeNum":0,"id":"05508a6c-d3af-4550-aa0a-4f9e1b79e4cd","images":null,"isGs":0,"lat":33.718751,"link":0,"lng":113.32355,"mapIcon":"","maxOutPower":0,"operatorTypes":"4","payType":"","phone":"","plugType":2,"priceRational":999999,"province":"河南省","quantity":2,"score":0,"serviceCode":0,"standard":1,"status":0,"supportOrder":0},{"address":"河南省漯河市郾城区海河路与太行山路交叉口向西300米路北","areaName":"","city":"漯河市","company":"漯河郾城区委充电站","connectorType":1,"currentType":3,"freeNum":0,"id":"6a695d24-29cd-4d9a-bcc1-672611d7b174","images":null,"isGs":0,"lat":33.587029,"link":0,"lng":114.001799,"mapIcon":"","maxOutPower":0,"operatorTypes":"4","payType":"","phone":"","plugType":2,"priceRational":999999,"province":"河南省","quantity":7,"score":0,"serviceCode":0,"standard":1,"status":0,"supportOrder":0},{"address":"河南省漯河市郾城区海河路与太行山路交叉口向东140米路北","areaName":"","city":"漯河市","company":"漯河郾城区政府充电站","connectorType":1,"currentType":3,"freeNum":0,"id":"a1364ae2-7845-4e99-9ccd-2a6c078e973e","images":null,"isGs":0,"lat":33.587037,"link":0,"lng":114.00665,"mapIcon":"","maxOutPower":0,"operatorTypes":"4","payType":"","phone":"","plugType":2,"priceRational":999999,"province":"河南省","quantity":7,"score":0,"serviceCode":0,"standard":1,"status":0,"supportOrder":0},{"address":"河南省漯河市源汇区S330省道与经一路交叉口西北角100米","areaName":"","city":"漯河市","company":"漯河亿通汽车城充电站","connectorType":1,"currentType":3,"freeNum":0,"id":"1c65d10d-c7ac-4e02-a39b-098ce596ecef","images":null,"isGs":0,"lat":33.548384,"link":0,"lng":113.992883,"mapIcon":"","maxOutPower":0,"operatorTypes":"4","payType":"","phone":"","plugType":2,"priceRational":999999,"province":"河南省","quantity":8,"score":0,"serviceCode":0,"standard":1,"status":0,"supportOrder":0},{"address":"河南省漯河市舞阳县漯河市舞阳县张家港路与s330省道交叉口路北30米舞阳系统汽车城院内","areaName":"","city":"漯河市","company":"漯河舞阳亿通汽车城充电站","connectorType":1,"currentType":3,"freeNum":0,"id":"b4604093-7a97-467b-bf02-c75488f86ac8","images":null,"isGs":0,"lat":33.446461,"link":0,"lng":113.644375,"mapIcon":"","maxOutPower":0,"operatorTypes":"4","payType":"","phone":"","plugType":2,"priceRational":999999,"province":"河南省","quantity":7,"score":0,"serviceCode":0,"standard":1,"status":0,"supportOrder":0},{"address":"河南省安阳市文峰区平原路383号","areaName":"","city":"安阳市","company":"安阳胜祥长明苑充电站","connectorType":1,"currentType":3,"freeNum":0,"id":"57d95c63-72e2-4041-8351-f8d802217799","images":null,"isGs":0,"lat":36.065847,"link":0,"lng":114.376951,"mapIcon":"","maxOutPower":0,"operatorTypes":"4","payType":"","phone":"","plugType":2,"priceRational":999999,"province":"河南省","quantity":8,"score":0,"serviceCode":0,"standard":1,"status":0,"supportOrder":0},{"address":"河南省安阳市北关区S303(光明路)河南省安阳市北关区人民路和光明路交叉口向北1200米路东","areaName":"","city":"安阳市","company":"安阳亿龙奇瑞充电站","connectorType":1,"currentType":3,"freeNum":0,"id":"315794a3-7e22-40b9-ac95-4cef9596bd5a","images":null,"isGs":0,"lat":36.121307,"link":0,"lng":114.411388,"mapIcon":"","maxOutPower":0,"operatorTypes":"4","payType":"","phone":"","plugType":2,"priceRational":999999,"province":"河南省","quantity":8,"score":0,"serviceCode":0,"standard":1,"status":0,"supportOrder":0},{"address":"山西省长治市郊区长治市漳泽工业园区山西诺尔昌泰有限公司院内","areaName":"","city":"长治市","company":"长治宏鑫元充电站","connectorType":1,"currentType":3,"freeNum":0,"id":"ab553422-f0be-4d1b-820b-80d44c4f8f4c","images":null,"isGs":0,"lat":36.24823,"link":0,"lng":113.1071,"mapIcon":"","maxOutPower":0,"operatorTypes":"4","payType":"","phone":"","plugType":2,"priceRational":999999,"province":"山西省","quantity":8,"score":0,"serviceCode":0,"standard":1,"status":0,"supportOrder":0},{"address":"河北省邯郸市磁县G107(京深线)107国道","areaName":"","city":"邯郸市","company":"河北常祯电气制造公司充电站","connectorType":1,"currentType":3,"freeNum":0,"id":"ba22deec-321c-4b04-868d-c0ade283ac52","images":null,"isGs":0,"lat":36.264375,"link":0,"lng":114.347944,"mapIcon":"","maxOutPower":0,"operatorTypes":"4","payType":"","phone":"","plugType":2,"priceRational":999999,"province":"河北省","quantity":2,"score":0,"serviceCode":0,"standard":1,"status":0,"supportOrder":0},{"address":"河南省商丘市梁园区商丘市陇海路与富康路向南200米路东","areaName":"","city":"商丘市","company":"商丘市车管所北汽充电站","connectorType":1,"currentType":1,"freeNum":0,"id":"ce87309e-cb65-4048-8542-286929f26d25","images":null,"isGs":0,"lat":34.450601,"link":0,"lng":115.599924,"mapIcon":"","maxOutPower":0,"operatorTypes":"4","payType":"","phone":"","plugType":2,"priceRational":999999,"province":"河南省","quantity":2,"score":0,"serviceCode":0,"standard":1,"status":0,"supportOrder":0},{"address":"河南省商丘市睢阳区南京路与平原路交叉口东500米路南","areaName":"","city":"商丘市","company":"商丘市南京路智源充电站","connectorType":1,"currentType":3,"freeNum":0,"id":"902bc672-6483-496c-9acf-f7e75d4a3cb3","images":null,"isGs":0,"lat":34.407473,"link":0,"lng":115.621454,"mapIcon":"","maxOutPower":0,"operatorTypes":"4","payType":"","phone":"","plugType":2,"priceRational":999999,"province":"河南省","quantity":5,"score":0,"serviceCode":0,"standard":1,"status":0,"supportOrder":0},{"address":"河北省邯郸市磁县磁西公路西固义乡磁西公路立本机动车检测(二保厂）院外","areaName":"","city":"邯郸市","company":"磁西路二保厂充电站","connectorType":1,"currentType":1,"freeNum":0,"id":"c2781548-f970-401b-940a-df56f851f428","images":null,"isGs":0,"lat":36.377414,"link":0,"lng":114.313786,"mapIcon":"","maxOutPower":0,"operatorTypes":"4","payType":"","phone":"","plugType":2,"priceRational":999999,"province":"河北省","quantity":2,"score":0,"serviceCode":0,"standard":1,"status":0,"supportOrder":0},{"address":"河南省商丘市梁园区河南省商丘市梁园区商均路","areaName":"","city":"商丘市","company":"商丘豫东国际食品城充电站","connectorType":1,"currentType":3,"freeNum":0,"id":"8d39c62d-8aa8-4c73-a778-f05e07ba1b94","images":null,"isGs":0,"lat":34.450519,"link":0,"lng":115.704087,"mapIcon":"","maxOutPower":0,"operatorTypes":"4","payType":"","phone":"","plugType":2,"priceRational":999999,"province":"河南省","quantity":5,"score":0,"serviceCode":0,"standard":1,"status":0,"supportOrder":0},{"address":"河北省邯郸市临漳县S212(朱雀大道)朱雀大道西段","areaName":"","city":"邯郸市","company":"邯郸临漳县医院充电站","connectorType":1,"currentType":3,"freeNum":0,"id":"a3e595fc-7aa6-4575-8e95-d9c76064cb9e","images":null,"isGs":0,"lat":36.3184,"link":0,"lng":114.594069,"mapIcon":"","maxOutPower":0,"operatorTypes":"4","payType":"","phone":"","plugType":2,"priceRational":999999,"province":"河北省","quantity":4,"score":0,"serviceCode":0,"standard":1,"status":0,"supportOrder":0},{"address":"河北省邯郸市邯山区成峰路与中意大街交叉口西南角钱氏中医院门口西侧停车场","areaName":"","city":"邯郸市","company":"邯郸钱氏中医院充电站","connectorType":1,"currentType":1,"freeNum":0,"id":"61267f96-e1dc-44e8-a3b2-117bfdfa3231","images":null,"isGs":0,"lat":36.47242,"link":0,"lng":114.39839,"mapIcon":"","maxOutPower":0,"operatorTypes":"4","payType":"","phone":"","plugType":2,"priceRational":999999,"province":"河北省","quantity":1,"score":0,"serviceCode":0,"standard":1,"status":0,"supportOrder":0},{"address":"河北省邯郸市磁县马头镇民航路1号","areaName":"","city":"邯郸市","company":"邯郸机场充电站","connectorType":1,"currentType":3,"freeNum":0,"id":"9fe5c79d-619d-4bda-8f33-58dca2c2085f","images":null,"isGs":0,"lat":36.526088,"link":0,"lng":114.435472,"mapIcon":"","maxOutPower":0,"operatorTypes":"4","payType":"","phone":"","plugType":2,"priceRational":999999,"province":"河北省","quantity":4,"score":0,"serviceCode":0,"standard":1,"status":0,"supportOrder":0},{"address":"河北省邯郸市邯郸县河北省邯郸市邯郸县绿源路邯郸市辰翔驾校","areaName":"","city":"邯郸市","company":"邯郸市辰翔驾校充电站","connectorType":1,"currentType":1,"freeNum":0,"id":"d2919666-c2df-41b8-be47-09261e10c2e8","images":null,"isGs":0,"lat":36.540243,"link":0,"lng":114.396273,"mapIcon":"","maxOutPower":0,"operatorTypes":"4","payType":"","phone":"","plugType":2,"priceRational":999999,"province":"河北省","quantity":1,"score":0,"serviceCode":0,"standard":1,"status":0,"supportOrder":0},{"address":"河北省邯郸市邯郸县河北省邯郸市邯郸县邯郸市西环和南环路交叉口G22方向1公里路南","areaName":"","city":"邯郸市","company":"邯郸香草湖充电站","connectorType":1,"currentType":3,"freeNum":0,"id":"639db155-f4ec-4249-a314-916bcf2eea4c","images":null,"isGs":0,"lat":36.560835,"link":0,"lng":114.395119,"mapIcon":"","maxOutPower":0,"operatorTypes":"4","payType":"","phone":"","plugType":2,"priceRational":999999,"province":"河北省","quantity":2,"score":0,"serviceCode":0,"standard":1,"status":0,"supportOrder":0},{"address":"河北省邯郸市邯郸县美丽乡村小堤村停车场","areaName":"","city":"邯郸市","company":"邯郸美丽乡村小堤村充电站","connectorType":1,"currentType":1,"freeNum":0,"id":"19a42080-679e-46f5-bfc0-a1d773a449dd","images":null,"isGs":0,"lat":36.508285,"link":0,"lng":114.571337,"mapIcon":"","maxOutPower":0,"operatorTypes":"4","payType":"","phone":"","plugType":2,"priceRational":999999,"province":"河北省","quantity":2,"score":0,"serviceCode":0,"standard":1,"status":0,"supportOrder":0},{"address":"河北省邯郸市邯郸县中华南大街邯郸一中新校区南门东行300米路南","areaName":"","city":"邯郸市","company":"邯郸市刘村邯郸往事充电站","connectorType":1,"currentType":1,"freeNum":0,"id":"0aedaaf7-6f7d-4dfa-a745-2f34e2c7e46e","images":null,"isGs":0,"lat":36.538677,"link":0,"lng":114.493086,"mapIcon":"","maxOutPower":0,"operatorTypes":"4","payType":"","phone":"","plugType":2,"priceRational":999999,"province":"河北省","quantity":3,"score":0,"serviceCode":0,"standard":1,"status":0,"supportOrder":0},{"address":"河北省邯郸市邯山区南环路邯郸市鼎邦机动车检测服务公司院内","areaName":"","city":"邯郸市","company":"邯郸市鼎邦机动车检测服务充电站","connectorType":1,"currentType":3,"freeNum":0,"id":"8be06a6a-5a4c-4a96-88e0-37e556e94414","images":null,"isGs":0,"lat":36.566096,"link":0,"lng":114.449382,"mapIcon":"","maxOutPower":0,"operatorTypes":"4","payType":"","phone":"","plugType":2,"priceRational":999999,"province":"河北省","quantity":3,"score":0,"serviceCode":0,"standard":1,"status":0,"supportOrder":0},{"address":"河北省邯郸市复兴区南环路与机场路交叉口东行200米路南冀和汽配产业园","areaName":"","city":"邯郸市","company":"邯郸冀和汽配产业园充电站","connectorType":1,"currentType":1,"freeNum":0,"id":"0e49ee7d-638e-455b-8e19-50bc381f69ff","images":null,"isGs":0,"lat":36.567463,"link":0,"lng":114.455779,"mapIcon":"","maxOutPower":0,"operatorTypes":"4","payType":"","phone":"","plugType":2,"priceRational":999999,"province":"河北省","quantity":2,"score":0,"serviceCode":0,"standard":1,"status":0,"supportOrder":0},{"address":"河北省邯郸市邯山区107国道与南环交叉口东行100米路南院内众泰总店门前停车场","areaName":"","city":"邯郸市","company":"邯郸市众泰4S店充电站","connectorType":1,"currentType":1,"freeNum":0,"id":"288dad58-b245-4930-8638-c184284b71d3","images":null,"isGs":0,"lat":36.568096,"link":0,"lng":114.470164,"mapIcon":"","maxOutPower":0,"operatorTypes":"4","payType":"","phone":"","plugType":2,"priceRational":999999,"province":"河北省","quantity":2,"score":0,"serviceCode":0,"standard":1,"status":0,"supportOrder":0},{"address":"河北省邯郸市邯郸县河北省邯郸市邯山区滏东大街众泰新能源总店","areaName":"","city":"邯郸市","company":"邯郸市众泰新能源店充电站1","connectorType":1,"currentType":1,"freeNum":0,"id":"0ccf2f36-f35e-427c-8ce5-bfa1a0f28edf","images":null,"isGs":0,"lat":36.568857,"link":0,"lng":114.51998,"mapIcon":"","maxOutPower":0,"operatorTypes":"4","payType":"","phone":"","plugType":2,"priceRational":999999,"province":"河北省","quantity":1,"score":0,"serviceCode":0,"standard":1,"status":0,"supportOrder":0},{"address":"河北省邯郸市邯山区邯郸市滏西大街与学院北路交叉口西行100米路南","areaName":"","city":"邯郸市","company":"邯郸市邯山区国税局充电站","connectorType":1,"currentType":3,"freeNum":0,"id":"1c445689-64a5-47ce-b9ea-db0f78da142a","images":null,"isGs":0,"lat":36.575444,"link":0,"lng":114.50352,"mapIcon":"","maxOutPower":0,"operatorTypes":"4","payType":"","phone":"","plugType":2,"priceRational":999999,"province":"河北省","quantity":3,"score":0,"serviceCode":0,"standard":1,"status":0,"supportOrder":0},{"address":"河北省邯郸市邯山区光明南大街109号","areaName":"","city":"邯郸市","company":"邯郸旺角广场充电站","connectorType":1,"currentType":3,"freeNum":0,"id":"ac191a22-3af3-49ed-beae-942e06bd7c45","images":null,"isGs":0,"lat":36.584912,"link":0,"lng":114.499498,"mapIcon":"","maxOutPower":0,"operatorTypes":"4","payType":"","phone":"","plugType":2,"priceRational":999999,"province":"河北省","quantity":4,"score":0,"serviceCode":0,"standard":1,"status":0,"supportOrder":0},{"address":"河北省邯郸市复兴区复兴路与建设大街交叉口北行30米路东聚钢商务酒店门前停车场","areaName":"","city":"邯郸市","company":"邯郸聚钢商务酒店充电站","connectorType":1,"currentType":1,"freeNum":0,"id":"4f0a10bc-45c4-4cda-957d-0210f08d12d8","images":null,"isGs":0,"lat":36.608899,"link":0,"lng":114.461181,"mapIcon":"","maxOutPower":0,"operatorTypes":"4","payType":"","phone":"","plugType":2,"priceRational":999999,"province":"河北省","quantity":2,"score":0,"serviceCode":0,"standard":1,"status":0,"supportOrder":0},{"address":"河北省邯郸市邯郸县刘南线可赛物流院内","areaName":"","city":"邯郸市","company":"邯郸可赛物流充电站","connectorType":1,"currentType":3,"freeNum":0,"id":"da0070d6-5c44-4992-8882-15d3d94c3421","images":null,"isGs":0,"lat":36.575832,"link":0,"lng":114.574492,"mapIcon":"","maxOutPower":0,"operatorTypes":"4","payType":"","phone":"","plugType":2,"priceRational":999999,"province":"河北省","quantity":4,"score":0,"serviceCode":0,"standard":1,"status":0,"supportOrder":0},{"address":"河北省邯郸市丛台区滏河大街与和平路交叉口东南角（王府花园对面）","areaName":"","city":"邯郸市","company":"邯郸滨河世纪大厦停车场充电站","connectorType":1,"currentType":3,"freeNum":0,"id":"5e6a6be0-888a-4617-b47f-74fd9496392b","images":null,"isGs":0,"lat":36.600968,"link":0,"lng":114.507966,"mapIcon":"","maxOutPower":0,"operatorTypes":"4","payType":"","phone":"","plugType":2,"priceRational":999999,"province":"河北省","quantity":7,"score":0,"serviceCode":0,"standard":1,"status":0,"supportOrder":0},{"address":"河北省邯郸市丛台区中华北大街29号人民路与中华大街交叉口","areaName":"","city":"邯郸市","company":"邯郸新世纪充电站","connectorType":1,"currentType":2,"freeNum":0,"id":"aa9b7f1a-e0fa-47aa-972f-af29847274d9","images":null,"isGs":0,"lat":36.610545,"link":0,"lng":114.4946,"mapIcon":"","maxOutPower":0,"operatorTypes":"4","payType":"","phone":"","plugType":2,"priceRational":999999,"province":"河北省","quantity":12,"score":0,"serviceCode":0,"standard":1,"status":0,"supportOrder":0},{"address":"河北省邯郸市邯郸县东环路与人民路交叉口南行300米新东方大酒店院内（里院）停车场","areaName":"","city":"邯郸市","company":"邯郸新东方大酒店充电站","connectorType":1,"currentType":1,"freeNum":0,"id":"aa88c08c-40ce-48df-a25b-a56d561e27bf","images":null,"isGs":0,"lat":36.602751,"link":0,"lng":114.539207,"mapIcon":"","maxOutPower":0,"operatorTypes":"4","payType":"","phone":"","plugType":2,"priceRational":999999,"province":"河北省","quantity":2,"score":0,"serviceCode":0,"standard":1,"status":0,"supportOrder":0},{"address":"河北省邯郸市武安市武安市矿建路与西环路交叉口西行500米武安市第一人民医院","areaName":"","city":"邯郸市","company":"武安市医院充电站","connectorType":1,"currentType":3,"freeNum":0,"id":"5d6cd2cc-b71c-40ec-9e8e-fc7be82a23ff","images":null,"isGs":0,"lat":36.698167,"link":0,"lng":114.155487,"mapIcon":"","maxOutPower":0,"operatorTypes":"4","payType":"","phone":"","plugType":2,"priceRational":999999,"province":"河北省","quantity":2,"score":0,"serviceCode":0,"standard":1,"status":0,"supportOrder":0},{"address":"河北省邯郸市丛台区丛台路372号丛台路与滏河大街交叉口东行500米路南邯郸市游泳馆院内停车场","areaName":"","city":"邯郸市","company":"邯郸市游泳馆充电站","connectorType":1,"currentType":1,"freeNum":0,"id":"b5b4810c-7c4e-4196-8264-ba32ca4f5c17","images":null,"isGs":0,"lat":36.616667,"link":0,"lng":114.513248,"mapIcon":"","maxOutPower":0,"operatorTypes":"4","payType":"","phone":"","plugType":2,"priceRational":999999,"province":"河北省","quantity":2,"score":0,"serviceCode":0,"standard":1,"status":0,"supportOrder":0},{"address":"河北省邯郸市武安市武安市中兴路589号","areaName":"","city":"邯郸市","company":"邯郸武安惠众网络充电站","connectorType":1,"currentType":3,"freeNum":0,"id":"06084a8e-2b03-495d-9945-9937dba2e7d6","images":null,"isGs":0,"lat":36.692,"link":0,"lng":114.218655,"mapIcon":"","maxOutPower":0,"operatorTypes":"4","payType":"","phone":"","plugType":2,"priceRational":999999,"province":"河北省","quantity":4,"score":0,"serviceCode":0,"standard":1,"status":0,"supportOrder":0},{"address":"河北省邯郸市丛台区河北省邯郸市丛台区联纺东路512号","areaName":"","city":"邯郸市","company":"邯郸招商迎宾大酒店充电站","connectorType":1,"currentType":1,"freeNum":0,"id":"7e6e4aa3-8a4f-4700-82b1-964ae287de53","images":null,"isGs":0,"lat":36.625178,"link":0,"lng":114.522859,"mapIcon":"","maxOutPower":0,"operatorTypes":"4","payType":"","phone":"","plugType":2,"priceRational":999999,"province":"河北省","quantity":2,"score":0,"serviceCode":0,"standard":1,"status":0,"supportOrder":0},{"address":"河北省邯郸市丛台区新兴大街93号新兴大街与北仓路交叉口南100米","areaName":"","city":"邯郸市","company":"邯郸冠冠电动车商城充电站","connectorType":1,"currentType":3,"freeNum":0,"id":"eceeed98-5c6a-4b02-8e11-00960321d388","images":null,"isGs":0,"lat":36.634558,"link":0,"lng":114.498751,"mapIcon":"","maxOutPower":0,"operatorTypes":"4","payType":"","phone":"","plugType":2,"priceRational":999999,"province":"河北省","quantity":7,"score":0,"serviceCode":0,"standard":1,"status":0,"supportOrder":0},{"address":"河北省邯郸市丛台区河北省邯郸市丛台区联防东路与世纪大街交叉口东行600米路南世纪总部基地院内停车场","areaName":"","city":"邯郸市","company":"邯郸世纪总部基地充电站","connectorType":1,"currentType":3,"freeNum":0,"id":"484a61e1-0032-43e0-8aef-1e03e7bb7a2a","images":null,"isGs":0,"lat":36.622057,"link":0,"lng":114.548834,"mapIcon":"","maxOutPower":0,"operatorTypes":"4","payType":"","phone":"","plugType":2,"priceRational":999999,"province":"河北省","quantity":2,"score":0,"serviceCode":0,"standard":1,"status":0,"supportOrder":0},{"address":"河北省邯郸市邯郸县河北省邯郸市邯郸县秦皇大街","areaName":"","city":"邯郸市","company":"邯郸市高铁站充电站","connectorType":1,"currentType":3,"freeNum":0,"id":"2e779d0e-6b06-4698-a6e6-492dfd4e69d1","images":null,"isGs":0,"lat":36.620211,"link":0,"lng":114.559155,"mapIcon":"","maxOutPower":0,"operatorTypes":"4","payType":"","phone":"","plugType":2,"priceRational":999999,"province":"河北省","quantity":12,"score":0,"serviceCode":0,"standard":1,"status":0,"supportOrder":0},{"address":"河北省邯郸市肥乡县民生街与解放路交叉口东南100米","areaName":"","city":"邯郸市","company":"邯郸肥乡工业园充电站","connectorType":1,"currentType":3,"freeNum":0,"id":"10728c15-911f-403d-9983-f269dbd5ae5f","images":null,"isGs":0,"lat":36.582585,"link":0,"lng":114.679376,"mapIcon":"","maxOutPower":0,"operatorTypes":"4","payType":"","phone":"","plugType":2,"priceRational":999999,"province":"河北省","quantity":3,"score":0,"serviceCode":0,"standard":1,"status":0,"supportOrder":0},{"address":"河北省邯郸市武安市S312","areaName":"","city":"邯郸市","company":"邯郸市武安团城农贸市场充电站","connectorType":1,"currentType":3,"freeNum":0,"id":"a137bc33-5a5c-4773-b30d-b5be340174a7","images":null,"isGs":0,"lat":36.73186,"link":0,"lng":114.13227,"mapIcon":"","maxOutPower":0,"operatorTypes":"4","payType":"","phone":"","plugType":2,"priceRational":999999,"province":"河北省","quantity":2,"score":0,"serviceCode":0,"standard":1,"status":0,"supportOrder":0},{"address":"河北省邯郸市肥乡县G309(荣兰线)309国道与正义街交叉路口西北角肥乡双鼎农民工创业园前","areaName":"","city":"邯郸市","company":"邯郸肥乡双鼎商贸充电站","connectorType":1,"currentType":2,"freeNum":0,"id":"fe52ef7e-4c4b-46e4-bee5-858025b1238c","images":null,"isGs":0,"lat":36.564279,"link":0,"lng":114.7644,"mapIcon":"","maxOutPower":0,"operatorTypes":"4","payType":"","phone":"","plugType":2,"priceRational":999999,"province":"河北省","quantity":2,"score":0,"serviceCode":0,"standard":1,"status":0,"supportOrder":0},{"address":"河北省邯郸市广平县肥馆线双李家具展销馆","areaName":"","city":"邯郸市","company":"河北军波商贸充电站","connectorType":1,"currentType":3,"freeNum":0,"id":"62f66add-e19a-4af5-bcbf-f12045b5af2f","images":null,"isGs":0,"lat":36.48043,"link":0,"lng":114.97316,"mapIcon":"","maxOutPower":0,"operatorTypes":"4","payType":"","phone":"","plugType":2,"priceRational":999999,"province":"河北省","quantity":4,"score":0,"serviceCode":0,"standard":1,"status":0,"supportOrder":0},{"address":"山西省临汾市侯马市海军街","areaName":"","city":"临汾市","company":"侯马得利食品厂充电站","connectorType":1,"currentType":1,"freeNum":0,"id":"daa0abd1-be31-4784-9f27-7315e7fe1105","images":null,"isGs":0,"lat":35.614215,"link":0,"lng":111.399984,"mapIcon":"","maxOutPower":0,"operatorTypes":"4","payType":"","phone":"","plugType":2,"priceRational":999999,"province":"山西省","quantity":6,"score":0,"serviceCode":0,"standard":1,"status":0,"supportOrder":0},{"address":"河北省邯郸市丛台区邯郸市高新技术开发区邯郸时代汽车广场","areaName":"","city":"邯郸市","company":"邯郸时代汽车广场充电站","connectorType":1,"currentType":3,"freeNum":0,"id":"526c99a9-a2cd-4fda-bfa0-faa11338f61f","images":null,"isGs":0,"lat":36.656203,"link":0,"lng":114.5657,"mapIcon":"","maxOutPower":0,"operatorTypes":"4","payType":"","phone":"","plugType":2,"priceRational":999999,"province":"河北省","quantity":24,"score":0,"serviceCode":0,"standard":1,"status":0,"supportOrder":0},{"address":"河南省三门峡市湖滨区五原西路与甘棠南路交叉口西400米","areaName":"","city":"三门峡市","company":"三门峡国际文博城充电站","connectorType":1,"currentType":3,"freeNum":0,"id":"ed69310a-3f24-4c34-bf26-e16f7da34ded","images":null,"isGs":0,"lat":34.780722,"link":0,"lng":111.171235,"mapIcon":"","maxOutPower":0,"operatorTypes":"4","payType":"","phone":"","plugType":2,"priceRational":999999,"province":"河南省","quantity":13,"score":0,"serviceCode":0,"standard":1,"status":0,"supportOrder":0},{"address":"河北省邯郸市邯郸县和谐大街19号东门口广场地上停车位","areaName":"","city":"邯郸市","company":"邯郸市高开区管委会充电站","connectorType":1,"currentType":1,"freeNum":0,"id":"c5314603-f28c-4c41-853d-a2bdc58f87bf","images":null,"isGs":0,"lat":36.675876,"link":0,"lng":114.565913,"mapIcon":"","maxOutPower":0,"operatorTypes":"4","payType":"","phone":"","plugType":2,"priceRational":999999,"province":"河北省","quantity":1,"score":0,"serviceCode":0,"standard":1,"status":0,"supportOrder":0},{"address":"河北省邯郸市邯郸县尚璧镇东行300米邯临路北","areaName":"","city":"邯郸市","company":"邯郸肝病医院充电站","connectorType":1,"currentType":3,"freeNum":0,"id":"d0ac7992-aa29-4a0c-96b6-1bd87e1e8d97","images":null,"isGs":0,"lat":36.668052,"link":0,"lng":114.611879,"mapIcon":"","maxOutPower":0,"operatorTypes":"4","payType":"","phone":"","plugType":2,"priceRational":999999,"province":"河北省","quantity":6,"score":0,"serviceCode":0,"standard":1,"status":0,"supportOrder":0},{"address":"山西省临汾市侯马市侯张街12","areaName":"","city":"临汾市","company":"侯马怡鑫大酒店充电项目","connectorType":1,"currentType":3,"freeNum":0,"id":"f2a6e1bc-bf12-4b9c-b0b5-f5b7a0440fab","images":null,"isGs":0,"lat":35.622266,"link":0,"lng":111.358619,"mapIcon":"","maxOutPower":0,"operatorTypes":"4","payType":"","phone":"","plugType":2,"priceRational":999999,"province":"山西省","quantity":6,"score":0,"serviceCode":0,"standard":1,"status":0,"supportOrder":0},{"address":"河北省邯郸市永年县中华大街新兴永洋物流西行200米路南（物流园北门西行50米路南）","areaName":"","city":"邯郸市","company":"邯郸市永洋物流园充电站","connectorType":1,"currentType":1,"freeNum":0,"id":"bedc7b8e-957e-4cb3-b0da-3a6ef7645e2c","images":null,"isGs":0,"lat":36.721097,"link":0,"lng":114.508518,"mapIcon":"","maxOutPower":0,"operatorTypes":"4","payType":"","phone":"","plugType":2,"priceRational":999999,"province":"河北省","quantity":1,"score":0,"serviceCode":0,"standard":1,"status":0,"supportOrder":0},{"address":"山西省运城市闻喜县大运高速路口闻喜奥格装饰材料城","areaName":"","city":"运城市","company":"运城闻喜奥格装饰城充电站","connectorType":1,"currentType":1,"freeNum":0,"id":"b9d7d98e-d6ec-412a-8576-194e233748da","images":null,"isGs":0,"lat":35.338775,"link":0,"lng":111.198118,"mapIcon":"","maxOutPower":0,"operatorTypes":"4","payType":"","phone":"","plugType":2,"priceRational":999999,"province":"山西省","quantity":8,"score":0,"serviceCode":0,"standard":1,"status":0,"supportOrder":0},{"address":"山西省运城市盐湖区","areaName":"","city":"运城市","company":"运城汤里村口充电站","connectorType":1,"currentType":1,"freeNum":0,"id":"33b0c7a5-2c68-40c9-853b-bbc9ffb7890e","images":null,"isGs":0,"lat":35.079183,"link":0,"lng":111.116171,"mapIcon":"","maxOutPower":0,"operatorTypes":"4","payType":"","phone":"","plugType":2,"priceRational":999999,"province":"山西省","quantity":3,"score":0,"serviceCode":0,"standard":1,"status":0,"supportOrder":0},{"address":"山西省临汾市襄汾县新城镇下梁村华亨石膏粉加工厂院内停车场","areaName":"","city":"临汾市","company":"襄汾华亨石膏厂充电站","connectorType":1,"currentType":1,"freeNum":0,"id":"1b2354ea-2b17-4322-9aff-4636fe1dddc1","images":null,"isGs":0,"lat":35.889039,"link":0,"lng":111.463452,"mapIcon":"","maxOutPower":0,"operatorTypes":"4","payType":"","phone":"","plugType":2,"priceRational":999999,"province":"山西省","quantity":2,"score":0,"serviceCode":0,"standard":1,"status":0,"supportOrder":0},{"address":"河北省邯郸市永年县吴庄村北朱山植物园","areaName":"","city":"邯郸市","company":"邯郸市朱山石刻文化园充电站","connectorType":1,"currentType":1,"freeNum":0,"id":"ef8a6743-8989-45fb-8e40-6c94de94474f","images":null,"isGs":0,"lat":36.789567,"link":0,"lng":114.434297,"mapIcon":"","maxOutPower":0,"operatorTypes":"4","payType":"","phone":"","plugType":2,"priceRational":999999,"province":"河北省","quantity":1,"score":0,"serviceCode":0,"standard":1,"status":0,"supportOrder":0},{"address":"山西省运城市盐湖区机场大道1号，销售公司南门车场","areaName":"","city":"运城市","company":"运城大运公司充电站","connectorType":1,"currentType":3,"freeNum":0,"id":"25d5acfb-97d7-47b9-8911-aec5f64cdc84","images":null,"isGs":0,"lat":35.091275,"link":0,"lng":111.050491,"mapIcon":"","maxOutPower":0,"operatorTypes":"4","payType":"","phone":"","plugType":2,"priceRational":999999,"province":"山西省","quantity":9,"score":0,"serviceCode":0,"standard":1,"status":0,"supportOrder":0},{"address":"山西省运城市盐湖区运城市盐湖区关公东街9号","areaName":"","city":"运城市","company":"运城空港度假村充电站","connectorType":1,"currentType":3,"freeNum":0,"id":"2ffd68be-ff97-4ad6-8d25-fcd34ca0a5fd","images":null,"isGs":0,"lat":35.114533,"link":0,"lng":111.046913,"mapIcon":"","maxOutPower":0,"operatorTypes":"4","payType":"","phone":"","plugType":2,"priceRational":999999,"province":"山西省","quantity":14,"score":0,"serviceCode":0,"standard":1,"status":0,"supportOrder":0},{"address":"山西省运城市盐湖区禹西路8号世纪华联","areaName":"","city":"运城市","company":"运城市世纪华联充电站","connectorType":1,"currentType":1,"freeNum":0,"id":"9fd3886a-cf5b-4d48-a0d9-072467518029","images":null,"isGs":0,"lat":35.045151,"link":0,"lng":111.027705,"mapIcon":"","maxOutPower":0,"operatorTypes":"4","payType":"","phone":"","plugType":2,"priceRational":999999,"province":"山西省","quantity":5,"score":0,"serviceCode":0,"standard":1,"status":0,"supportOrder":0},{"address":"山西省运城市盐湖区候风线","areaName":"","city":"运城市","company":"运城诺维兰汽车公园充电站","connectorType":1,"currentType":3,"freeNum":0,"id":"2aa4b122-0f13-4b4e-91e5-fb479ea947c3","images":null,"isGs":0,"lat":35.065768,"link":0,"lng":111.026931,"mapIcon":"","maxOutPower":0,"operatorTypes":"4","payType":"","phone":"","plugType":2,"priceRational":999999,"province":"山西省","quantity":4,"score":0,"serviceCode":0,"standard":1,"status":0,"supportOrder":0},{"address":"山西省运城市盐湖区学院南路辅路","areaName":"","city":"运城市","company":"运城通宝天际名店充电站","connectorType":1,"currentType":3,"freeNum":0,"id":"2ea891d7-5e78-4cc7-8135-adae2b755c57","images":null,"isGs":0,"lat":35.039551,"link":0,"lng":111.022713,"mapIcon":"","maxOutPower":0,"operatorTypes":"4","payType":"","phone":"","plugType":2,"priceRational":999999,"province":"山西省","quantity":5,"score":0,"serviceCode":0,"standard":1,"status":0,"supportOrder":0},{"address":"山西省运城市盐湖区涑水街与安中路交会处","areaName":"","city":"运城市","company":"运城居然之家充电站","connectorType":1,"currentType":1,"freeNum":0,"id":"88db22f5-4492-4b3f-8507-42c625ce23e3","images":null,"isGs":0,"lat":35.080024,"link":0,"lng":111.027165,"mapIcon":"","maxOutPower":0,"operatorTypes":"4","payType":"","phone":"","plugType":2,"priceRational":999999,"province":"山西省","quantity":18,"score":0,"serviceCode":0,"standard":1,"status":0,"supportOrder":0},{"address":"山西省运城市盐湖区机场大道中段机场大道中段","areaName":"","city":"运城市","company":"运城通达充电站","connectorType":1,"currentType":1,"freeNum":0,"id":"337e62a9-3c95-4c99-9529-2a087f838096","images":null,"isGs":0,"lat":35.058822,"link":0,"lng":111.02319,"mapIcon":"","maxOutPower":0,"operatorTypes":"4","payType":"","phone":"","plugType":2,"priceRational":999999,"province":"山西省","quantity":3,"score":0,"serviceCode":0,"standard":1,"status":0,"supportOrder":0},{"address":"河北省邯郸市武安市邯郸武安市七步沟旅游景区停车场","areaName":"","city":"邯郸市","company":"邯郸武安市七步沟充电站","connectorType":1,"currentType":3,"freeNum":0,"id":"29e7d296-fdae-401b-bc83-eaa8649a6d4d","images":null,"isGs":0,"lat":36.93695,"link":0,"lng":113.87151,"mapIcon":"","maxOutPower":0,"operatorTypes":"4","payType":"","phone":"","plugType":2,"priceRational":999999,"province":"河北省","quantity":14,"score":0,"serviceCode":0,"standard":1,"status":0,"supportOrder":0},{"address":"山西省临汾市尧都区G108(京昆线)","areaName":"","city":"临汾市","company":"临汾吉利绿岳4S店充电站","connectorType":1,"currentType":3,"freeNum":0,"id":"a039d5d9-bcc8-4276-a54c-3a479c7cb7f1","images":null,"isGs":0,"lat":36.134212,"link":0,"lng":111.56325,"mapIcon":"","maxOutPower":0,"operatorTypes":"4","payType":"","phone":"","plugType":2,"priceRational":999999,"province":"山西省","quantity":7,"score":0,"serviceCode":0,"standard":1,"status":0,"supportOrder":0},{"address":"山西省运城市盐湖区人民南路209","areaName":"","city":"运城市","company":"运城悦动新天地充电站","connectorType":1,"currentType":1,"freeNum":0,"id":"9431d146-ec7f-4e25-96bb-aa7c9d11cdcd","images":null,"isGs":0,"lat":35.028893,"link":0,"lng":111.004336,"mapIcon":"","maxOutPower":0,"operatorTypes":"4","payType":"","phone":"","plugType":2,"priceRational":999999,"province":"山西省","quantity":8,"score":0,"serviceCode":0,"standard":1,"status":0,"supportOrder":0},{"address":"山西省临汾市尧都区新百汇商业广场","areaName":"","city":"临汾市","company":"临汾新百汇充电站","connectorType":1,"currentType":3,"freeNum":0,"id":"7ac4041c-db1b-4105-8221-1ba40f87c3a2","images":null,"isGs":0,"lat":36.060203,"link":0,"lng":111.489096,"mapIcon":"","maxOutPower":0,"operatorTypes":"4","payType":"","phone":"","plugType":2,"priceRational":999999,"province":"山西省","quantity":20,"score":0,"serviceCode":0,"standard":1,"status":0,"supportOrder":0},{"address":"山西省运城市盐湖区解放南路123号","areaName":"","city":"运城市","company":"运城东星时代广场充电站","connectorType":1,"currentType":3,"freeNum":0,"id":"d2e48e9b-d165-489a-98b8-59abf8d5724e","images":null,"isGs":0,"lat":35.020643,"link":0,"lng":110.997738,"mapIcon":"","maxOutPower":0,"operatorTypes":"4","payType":"","phone":"","plugType":2,"priceRational":999999,"province":"山西省","quantity":4,"score":0,"serviceCode":0,"standard":1,"status":0,"supportOrder":0},{"address":"山西省运城市盐湖区人民北路东侧","areaName":"","city":"运城市","company":"运城巨幕电影城充电站","connectorType":1,"currentType":1,"freeNum":0,"id":"a86ea6c7-46b4-4c0d-8ac4-166598497b20","images":null,"isGs":0,"lat":35.047012,"link":0,"lng":110.996284,"mapIcon":"","maxOutPower":0,"operatorTypes":"4","payType":"","phone":"","plugType":2,"priceRational":999999,"province":"山西省","quantity":4,"score":0,"serviceCode":0,"standard":1,"status":0,"supportOrder":0},{"address":"河北省邯郸市馆陶县邯郸市馆陶县粮画小镇寿山寺村东","areaName":"","city":"邯郸市","company":"邯郸馆陶粮画小镇充电站","connectorType":1,"currentType":1,"freeNum":0,"id":"89018531-e63d-4f8d-890f-a86efad9ab4a","images":null,"isGs":0,"lat":36.547731,"link":0,"lng":115.226568,"mapIcon":"","maxOutPower":0,"operatorTypes":"4","payType":"","phone":"","plugType":2,"priceRational":999999,"province":"河北省","quantity":2,"score":0,"serviceCode":0,"standard":1,"status":0,"supportOrder":0},{"address":"山西省运城市盐湖区货场西路16号运城邮政邮件处理中心西大门","areaName":"","city":"运城市","company":"运城邮件处理中心充电站","connectorType":1,"currentType":1,"freeNum":0,"id":"76dcf7fe-7b1b-426f-ae77-bd2930bb9ce6","images":null,"isGs":0,"lat":35.028803,"link":0,"lng":110.977511,"mapIcon":"","maxOutPower":0,"operatorTypes":"4","payType":"","phone":"","plugType":2,"priceRational":999999,"province":"山西省","quantity":3,"score":0,"serviceCode":0,"standard":1,"status":0,"supportOrder":0},{"address":"山西省运城市盐湖区解放北路姚孟村北200米","areaName":"","city":"运城市","company":"运城皇马假日酒店充电站","connectorType":1,"currentType":3,"freeNum":0,"id":"35563dbe-9150-4cce-84b4-e681ec38b77f","images":null,"isGs":0,"lat":35.082648,"link":0,"lng":110.966968,"mapIcon":"","maxOutPower":0,"operatorTypes":"4","payType":"","phone":"","plugType":2,"priceRational":999999,"province":"山西省","quantity":4,"score":0,"serviceCode":0,"standard":1,"status":0,"supportOrder":0},{"address":"山西省运城市盐湖区大渠村南国生态园内停车场","areaName":"","city":"运城市","company":"运城南国风光生态园充电站","connectorType":1,"currentType":1,"freeNum":0,"id":"52d12dd1-c9c7-4379-b159-9bc09c003fbc","images":null,"isGs":0,"lat":35.023901,"link":0,"lng":110.957465,"mapIcon":"","maxOutPower":0,"operatorTypes":"4","payType":"","phone":"","plugType":2,"priceRational":999999,"province":"山西省","quantity":5,"score":0,"serviceCode":0,"standard":1,"status":0,"supportOrder":0},{"address":"河北省邢台市沙河市沙河市人民大街与新兴路往北300米路东","areaName":"","city":"邢台市","company":"邢台湡水迎宾馆充电站","connectorType":1,"currentType":3,"freeNum":0,"id":"e3989e1e-c1dd-4ad4-a55b-a58eba203145","images":null,"isGs":0,"lat":36.879131,"link":0,"lng":114.516975,"mapIcon":"","maxOutPower":0,"operatorTypes":"4","payType":"","phone":"","plugType":2,"priceRational":999999,"province":"河北省","quantity":4,"score":0,"serviceCode":0,"standard":1,"status":0,"supportOrder":0},{"address":"山西省运城市盐湖区姚孟乡曲渠村（车检中心西1000米）","areaName":"","city":"运城市","company":"运城北郊大运4s店充电站","connectorType":1,"currentType":1,"freeNum":0,"id":"dee31c23-4c76-4711-929b-5a2f365d6b0d","images":null,"isGs":0,"lat":35.070725,"link":0,"lng":110.951026,"mapIcon":"","maxOutPower":0,"operatorTypes":"4","payType":"","phone":"","plugType":2,"priceRational":999999,"province":"山西省","quantity":5,"score":0,"serviceCode":0,"standard":1,"status":0,"supportOrder":0},{"address":"山西省运城市盐湖区复旦大道（盐湖中学西侧）","areaName":"","city":"运城市","company":"运城鸿桥培训中心充电站","connectorType":1,"currentType":3,"freeNum":0,"id":"adaef6b9-421e-4498-8e73-db2891a3f3db","images":null,"isGs":0,"lat":35.122435,"link":0,"lng":110.942813,"mapIcon":"","maxOutPower":0,"operatorTypes":"4","payType":"","phone":"","plugType":2,"priceRational":999999,"province":"山西省","quantity":7,"score":0,"serviceCode":0,"standard":1,"status":0,"supportOrder":0},{"address":"山西省运城市盐湖区地址","areaName":"","city":"运城市","company":"运城现代农业示范园充电站","connectorType":1,"currentType":1,"freeNum":0,"id":"56ce2f4d-bcea-44de-9e9f-69500099948b","images":null,"isGs":0,"lat":35.132422,"link":0,"lng":110.943924,"mapIcon":"","maxOutPower":0,"operatorTypes":"4","payType":"","phone":"","plugType":2,"priceRational":999999,"province":"山西省","quantity":9,"score":0,"serviceCode":0,"standard":1,"status":0,"supportOrder":0},{"address":"河北省邯郸市曲周县S234(环城路)曲周工业园区","areaName":"","city":"邯郸市","company":"河北森蔚电气充电站","connectorType":1,"currentType":3,"freeNum":0,"id":"e3d06517-0777-4bcc-8737-04cb5ef977fb","images":null,"isGs":0,"lat":36.74512,"link":0,"lng":114.98273,"mapIcon":"","maxOutPower":0,"operatorTypes":"4","payType":"","phone":"","plugType":2,"priceRational":999999,"province":"河北省","quantity":3,"score":0,"serviceCode":0,"standard":1,"status":0,"supportOrder":0},{"address":"河北省邯郸市曲周县凤城东路县城东环与邯临路交叉口","areaName":"","city":"邯郸市","company":"邯郸曲周周旗建筑充电站","connectorType":1,"currentType":1,"freeNum":0,"id":"11f5448f-adc2-4d0d-974e-850de880e5f3","images":null,"isGs":0,"lat":36.782467,"link":0,"lng":114.998033,"mapIcon":"","maxOutPower":0,"operatorTypes":"4","payType":"","phone":"","plugType":2,"priceRational":999999,"province":"河北省","quantity":1,"score":0,"serviceCode":0,"standard":1,"status":0,"supportOrder":0},{"address":"山西省晋中市左权县东河路东东都丽园酒店","areaName":"","city":"晋中市","company":"晋中东都丽园酒店充电站","connectorType":1,"currentType":3,"freeNum":0,"id":"0a21a5f2-67cc-4f16-a5d8-1fada0daf035","images":null,"isGs":0,"lat":37.071778,"link":0,"lng":113.377466,"mapIcon":"","maxOutPower":0,"operatorTypes":"4","payType":"","phone":"","plugType":2,"priceRational":999999,"province":"山西省","quantity":4,"score":0,"serviceCode":0,"standard":1,"status":0,"supportOrder":0},{"address":"江苏省徐州市丰县S321","areaName":"","city":"徐州市","company":"丰县赵庄生态园充电站","connectorType":1,"currentType":3,"freeNum":0,"id":"32296fca-024b-4b89-bafa-634858c0d66f","images":null,"isGs":0,"lat":34.728956,"link":0,"lng":116.496325,"mapIcon":"","maxOutPower":0,"operatorTypes":"4","payType":"","phone":"","plugType":2,"priceRational":999999,"province":"江苏省","quantity":16,"score":0,"serviceCode":0,"standard":1,"status":0,"supportOrder":0},{"address":"山西省运城市稷山县丰喜路与稷峰街交叉路口东南侧","areaName":"","city":"运城市","company":"稷山安君农家乐充电站","connectorType":1,"currentType":1,"freeNum":0,"id":"1c32e754-dc4e-4953-bc86-0d14a515c848","images":null,"isGs":0,"lat":35.603087,"link":0,"lng":110.96127,"mapIcon":"","maxOutPower":0,"operatorTypes":"4","payType":"","phone":"","plugType":2,"priceRational":999999,"province":"山西省","quantity":6,"score":0,"serviceCode":0,"standard":1,"status":0,"supportOrder":0},{"address":"河北省邢台市沙河市邢台市开发区北组工业区河北兴达饲料集团有限公司","areaName":"","city":"邢台市","company":"邢台兴达饲料集团充电站","connectorType":1,"currentType":3,"freeNum":0,"id":"3e320d78-9299-4664-b8f7-e3bac9eb7db0","images":null,"isGs":0,"lat":37.002888,"link":0,"lng":114.544793,"mapIcon":"","maxOutPower":0,"operatorTypes":"4","payType":"","phone":"","plugType":2,"priceRational":999999,"province":"河北省","quantity":10,"score":0,"serviceCode":0,"standard":1,"status":0,"supportOrder":0},{"address":"河北省邢台市邢台县邢台南高速口邢台市汽车工业改装有限公司院内","areaName":"","city":"邢台市","company":"邢台交运改装厂充电站","connectorType":1,"currentType":1,"freeNum":0,"id":"5ea15381-c75d-49b5-8061-f2d4181af131","images":null,"isGs":0,"lat":37.013657,"link":0,"lng":114.572488,"mapIcon":"","maxOutPower":0,"operatorTypes":"4","payType":"","phone":"","plugType":2,"priceRational":999999,"province":"河北省","quantity":4,"score":0,"serviceCode":0,"standard":1,"status":0,"supportOrder":0},{"address":"河北省邢台市桥西区中兴西大街530号中兴西大街518号","areaName":"","city":"邢台市","company":"邢台家乐园第一次充电站","connectorType":1,"currentType":3,"freeNum":0,"id":"ab0cede8-d943-4862-9ca0-118e8bcfcfe6","images":null,"isGs":0,"lat":37.059115,"link":0,"lng":114.458277,"mapIcon":"","maxOutPower":0,"operatorTypes":"4","payType":"","phone":"","plugType":2,"priceRational":999999,"province":"河北省","quantity":3,"score":0,"serviceCode":0,"standard":1,"status":0,"supportOrder":0},{"address":"山西省运城市万荣县张高线张高线","areaName":"","city":"运城市","company":"万荣鑫宏达商贸充电站","connectorType":1,"currentType":1,"freeNum":0,"id":"75012db2-e1fc-419d-baeb-3722ac2625f9","images":null,"isGs":0,"lat":35.423969,"link":0,"lng":110.837417,"mapIcon":"","maxOutPower":0,"operatorTypes":"4","payType":"","phone":"","plugType":2,"priceRational":999999,"province":"山西省","quantity":2,"score":0,"serviceCode":0,"standard":1,"status":0,"supportOrder":0},{"address":"河北省邯郸市邱县振兴路辅路邱县振兴路2号金凯悦大酒店","areaName":"","city":"邯郸市","company":"邯郸邱县金凯悦大酒店充电站","connectorType":1,"currentType":3,"freeNum":0,"id":"0c3b5633-6784-4494-9b2a-99473df6c8b4","images":null,"isGs":0,"lat":36.811161,"link":0,"lng":115.185939,"mapIcon":"","maxOutPower":0,"operatorTypes":"4","payType":"","phone":"","plugType":2,"priceRational":999999,"province":"河北省","quantity":2,"score":0,"serviceCode":0,"standard":1,"status":0,"supportOrder":0},{"address":"河北省邢台市桥东区新华南路38号","areaName":"","city":"邢台市","company":"邢台君欣宾馆充电站","connectorType":1,"currentType":3,"freeNum":0,"id":"0f426224-a299-43c4-9370-6f9c02f74111","images":null,"isGs":0,"lat":37.060998,"link":0,"lng":114.4984,"mapIcon":"","maxOutPower":0,"operatorTypes":"4","payType":"","phone":"","plugType":2,"priceRational":999999,"province":"河北省","quantity":8,"score":0,"serviceCode":0,"standard":1,"status":0,"supportOrder":0},{"address":"河北省邢台市桥东区新华北路235号河北省邢台市桥东区天一城地下车库E区","areaName":"","city":"邢台市","company":"邢台天一城E区充电站","connectorType":1,"currentType":3,"freeNum":0,"id":"50fd8aa4-9fc2-45dd-a4cf-d5d7f717876c","images":null,"isGs":0,"lat":37.075703,"link":0,"lng":114.497799,"mapIcon":"","maxOutPower":0,"operatorTypes":"4","payType":"","phone":"","plugType":2,"priceRational":999999,"province":"河北省","quantity":3,"score":0,"serviceCode":0,"standard":1,"status":0,"supportOrder":0},{"address":"河北省邢台市桥东区团结东大街55号河北省邢台市桥东区新华北路和团结东大街交汇处东南角天一城B区地下停车场","areaName":"","city":"邢台市","company":"邢台天一城B区充电站","connectorType":1,"currentType":3,"freeNum":0,"id":"79e0e666-2f75-4de4-af0c-ec4d10c389b3","images":null,"isGs":0,"lat":37.078324,"link":0,"lng":114.497894,"mapIcon":"","maxOutPower":0,"operatorTypes":"4","payType":"","phone":"","plugType":2,"priceRational":999999,"province":"河北省","quantity":3,"score":0,"serviceCode":0,"standard":1,"status":0,"supportOrder":0},{"address":"河北省邢台市邢台县邢台市中兴东大街江东八路118号","areaName":"","city":"邢台市","company":"邢台环保产业园充电站","connectorType":1,"currentType":3,"freeNum":0,"id":"e8053a33-d244-4eb5-9c08-0a83de680064","images":null,"isGs":0,"lat":37.062833,"link":0,"lng":114.569589,"mapIcon":"","maxOutPower":0,"operatorTypes":"4","payType":"","phone":"","plugType":2,"priceRational":999999,"province":"河北省","quantity":14,"score":0,"serviceCode":0,"standard":1,"status":0,"supportOrder":0},{"address":"山西省运城市临猗县G209(呼北线)","areaName":"","city":"运城市","company":"临猗轩通车场充电站","connectorType":1,"currentType":1,"freeNum":0,"id":"e420facf-e2a0-4fad-8f95-90d704045159","images":null,"isGs":0,"lat":35.205412,"link":0,"lng":110.746296,"mapIcon":"","maxOutPower":0,"operatorTypes":"4","payType":"","phone":"","plugType":2,"priceRational":999999,"province":"山西省","quantity":5,"score":0,"serviceCode":0,"standard":1,"status":0,"supportOrder":0},{"address":"江苏省徐州市丰县丰县解放中路23号宏远宾馆地下停车场","areaName":"","city":"徐州市","company":"丰县宏远宾馆充电站","connectorType":1,"currentType":3,"freeNum":0,"id":"724eec91-7fe8-4657-bc02-f3fee1a3763a","images":null,"isGs":0,"lat":34.699019,"link":0,"lng":116.602981,"mapIcon":"","maxOutPower":0,"operatorTypes":"4","payType":"","phone":"","plugType":2,"priceRational":999999,"province":"江苏省","quantity":8,"score":0,"serviceCode":0,"standard":1,"status":0,"supportOrder":0},{"address":"河北省邢台市桥西区莲池大街与公园东街交叉口","areaName":"","city":"邢台市","company":"邢台富水嘉园B区充电站","connectorType":1,"currentType":3,"freeNum":0,"id":"f51854bb-e81c-436b-806b-69b53a0d4079","images":null,"isGs":0,"lat":37.0982,"link":0,"lng":114.48263,"mapIcon":"","maxOutPower":0,"operatorTypes":"4","payType":"","phone":"","plugType":2,"priceRational":999999,"province":"河北省","quantity":6,"score":0,"serviceCode":0,"standard":1,"status":0,"supportOrder":0},{"address":"河北省邢台市桥西区邢州大道3188号","areaName":"","city":"邢台市","company":"邢台万峰大酒店充电站","connectorType":1,"currentType":3,"freeNum":0,"id":"b317232b-7762-4288-ba08-5f358897b2ae","images":null,"isGs":0,"lat":37.102649,"link":0,"lng":114.468499,"mapIcon":"","maxOutPower":0,"operatorTypes":"4","payType":"","phone":"","plugType":2,"priceRational":999999,"province":"河北省","quantity":4,"score":0,"serviceCode":0,"standard":1,"status":0,"supportOrder":0},{"address":"江苏省徐州市丰县解放东路168号老东关步行街","areaName":"","city":"徐州市","company":"丰县老东关步行街中影星美充电站","connectorType":1,"currentType":3,"freeNum":0,"id":"85d11e69-6d8e-42d9-8713-311f4fa5fd6a","images":null,"isGs":0,"lat":34.699494,"link":0,"lng":116.613851,"mapIcon":"","maxOutPower":0,"operatorTypes":"4","payType":"","phone":"","plugType":2,"priceRational":999999,"province":"江苏省","quantity":10,"score":0,"serviceCode":0,"standard":1,"status":0,"supportOrder":0},{"address":"江苏省徐州市丰县解放东路","areaName":"","city":"徐州市","company":"丰县东大汽贸充电站","connectorType":1,"currentType":3,"freeNum":0,"id":"722aa0a8-e2f2-4053-88c7-3fbc68ba4f66","images":null,"isGs":0,"lat":34.700105,"link":0,"lng":116.626127,"mapIcon":"","maxOutPower":0,"operatorTypes":"4","payType":"","phone":"","plugType":2,"priceRational":999999,"province":"江苏省","quantity":11,"score":0,"serviceCode":0,"standard":1,"status":0,"supportOrder":0},{"address":"河北省邢台市南和县S325贾宋镇325省道与中兴东大街交叉口旁路南10米","areaName":"","city":"邢台市","company":"邢台嘉年华充电站","connectorType":1,"currentType":3,"freeNum":0,"id":"16ca3005-d063-46b9-be01-28feaf014604","images":null,"isGs":0,"lat":37.068009,"link":0,"lng":114.721105,"mapIcon":"","maxOutPower":0,"operatorTypes":"4","payType":"","phone":"","plugType":2,"priceRational":999999,"province":"河北省","quantity":4,"score":0,"serviceCode":0,"standard":1,"status":0,"supportOrder":0},{"address":"河北省邢台市邢台县邢台市桥东区龙岗大街汽车城内","areaName":"","city":"邢台市","company":"邢台汽车城充电站","connectorType":1,"currentType":1,"freeNum":0,"id":"1ae6e718-1317-44f0-bee5-19c02d565cdf","images":null,"isGs":0,"lat":37.118481,"link":0,"lng":114.556616,"mapIcon":"","maxOutPower":0,"operatorTypes":"4","payType":"","phone":"","plugType":2,"priceRational":999999,"province":"河北省","quantity":1,"score":0,"serviceCode":0,"standard":1,"status":0,"supportOrder":0},{"address":"山西省运城市河津市河津市G209国道东100米","areaName":"","city":"运城市","company":"河津群龙车城充电站","connectorType":1,"currentType":3,"freeNum":0,"id":"4350b755-b360-49f7-84d8-346c124bc44d","images":null,"isGs":0,"lat":35.540411,"link":0,"lng":110.721917,"mapIcon":"","maxOutPower":0,"operatorTypes":"4","payType":"","phone":"","plugType":2,"priceRational":999999,"province":"山西省","quantity":5,"score":0,"serviceCode":0,"standard":1,"status":0,"supportOrder":0},{"address":"山西省运城市永济市运文线","areaName":"","city":"运城市","company":"永济惠畅充电站","connectorType":1,"currentType":1,"freeNum":0,"id":"f749deb9-2893-41bd-9a75-6308c47ca602","images":null,"isGs":0,"lat":34.946895,"link":0,"lng":110.565393,"mapIcon":"","maxOutPower":0,"operatorTypes":"4","payType":"","phone":"","plugType":2,"priceRational":999999,"province":"山西省","quantity":2,"score":0,"serviceCode":0,"standard":1,"status":0,"supportOrder":0},{"address":"山西省运城市河津市永兴西路8号","areaName":"","city":"运城市","company":"河津嘉年华充电站","connectorType":1,"currentType":3,"freeNum":0,"id":"0f45c3a8-20bd-476b-840a-836061dd7a44","images":null,"isGs":0,"lat":35.574912,"link":0,"lng":110.70318,"mapIcon":"","maxOutPower":0,"operatorTypes":"4","payType":"","phone":"","plugType":2,"priceRational":999999,"province":"山西省","quantity":7,"score":0,"serviceCode":0,"standard":1,"status":0,"supportOrder":0},{"address":"山西省运城市河津市紫金街中段东星时代广场","areaName":"","city":"运城市","company":"河津东星时代广场充电站","connectorType":1,"currentType":3,"freeNum":0,"id":"0110e5f1-475b-45f6-9942-677031d2962b","images":null,"isGs":0,"lat":35.590102,"link":0,"lng":110.708614,"mapIcon":"","maxOutPower":0,"operatorTypes":"4","payType":"","phone":"","plugType":2,"priceRational":999999,"province":"山西省","quantity":7,"score":0,"serviceCode":0,"standard":1,"status":0,"supportOrder":0},{"address":"山西省运城市河津市龙岗路龙岗路","areaName":"","city":"运城市","company":"河津城基物贸充电站","connectorType":1,"currentType":1,"freeNum":0,"id":"0005d9f5-65d7-419e-bd5e-2addb1ea9143","images":null,"isGs":0,"lat":35.585917,"link":0,"lng":110.700151,"mapIcon":"","maxOutPower":0,"operatorTypes":"4","payType":"","phone":"","plugType":2,"priceRational":999999,"province":"山西省","quantity":3,"score":0,"serviceCode":0,"standard":1,"status":0,"supportOrder":0},{"address":"河北省邢台市威县邢台开放西路与北外大街交叉口","areaName":"","city":"邢台市","company":"邢台威县人民医院充电站","connectorType":1,"currentType":3,"freeNum":0,"id":"faef6900-f125-465f-9a68-e382a5ef00b1","images":null,"isGs":0,"lat":36.99285,"link":0,"lng":115.26373,"mapIcon":"","maxOutPower":0,"operatorTypes":"4","payType":"","phone":"","plugType":2,"priceRational":999999,"province":"河北省","quantity":4,"score":0,"serviceCode":0,"standard":1,"status":0,"supportOrder":0},{"address":"河北省邢台市威县邢台市威县开放路与友谊街交叉口","areaName":"","city":"邢台市","company":"邢台洺阳电影院充电站","connectorType":1,"currentType":3,"freeNum":0,"id":"5746daa7-917c-42b2-a836-7b9ee13eed06","images":null,"isGs":0,"lat":36.990147,"link":0,"lng":115.280862,"mapIcon":"","maxOutPower":0,"operatorTypes":"4","payType":"","phone":"","plugType":2,"priceRational":999999,"province":"河北省","quantity":6,"score":0,"serviceCode":0,"standard":1,"status":0,"supportOrder":0},{"address":"山西省晋中市平遥县曙光路26号","areaName":"","city":"晋中市","company":"晋中平遥建国饭店充电站","connectorType":1,"currentType":3,"freeNum":0,"id":"4f186e9b-b4e7-4055-8d23-c847462a8d64","images":null,"isGs":0,"lat":37.187076,"link":0,"lng":112.177454,"mapIcon":"","maxOutPower":0,"operatorTypes":"4","payType":"","phone":"","plugType":2,"priceRational":999999,"province":"山西省","quantity":6,"score":0,"serviceCode":0,"standard":1,"status":0,"supportOrder":0},{"address":"河北省邢台市巨鹿县S324(黄巾大道)黄巾大道与西平街交叉口东行100米路北","areaName":"","city":"邢台市","company":"邢台凯龙专用汽车充电站","connectorType":1,"currentType":3,"freeNum":0,"id":"83cb4a45-4382-4e91-a4fc-8bc2f01ecbe9","images":null,"isGs":0,"lat":37.236921,"link":0,"lng":115.023374,"mapIcon":"","maxOutPower":0,"operatorTypes":"4","payType":"","phone":"","plugType":2,"priceRational":999999,"province":"河北省","quantity":3,"score":0,"serviceCode":0,"standard":1,"status":0,"supportOrder":0},{"address":"山西省晋中市平遥县中都东街333号汉庭酒店","areaName":"","city":"晋中市","company":"晋中平遥汉庭酒店充电站","connectorType":1,"currentType":2,"freeNum":0,"id":"3c24764a-64bc-498f-a9f1-a07d57d860d3","images":null,"isGs":0,"lat":37.215183,"link":0,"lng":112.183057,"mapIcon":"","maxOutPower":0,"operatorTypes":"4","payType":"","phone":"","plugType":2,"priceRational":999999,"province":"山西省","quantity":5,"score":0,"serviceCode":0,"standard":1,"status":0,"supportOrder":0},{"address":"山西省晋中市太谷县山西省晋中市太谷县棋盘山漂流谷","areaName":"","city":"晋中市","company":"晋中太谷棋盘山充电站","connectorType":1,"currentType":1,"freeNum":0,"id":"764d7bb3-5495-4c66-bf1a-b5b9afeba78f","images":null,"isGs":0,"lat":37.415228,"link":0,"lng":112.874379,"mapIcon":"","maxOutPower":0,"operatorTypes":"4","payType":"","phone":"","plugType":2,"priceRational":999999,"province":"山西省","quantity":3,"score":0,"serviceCode":0,"standard":1,"status":0,"supportOrder":0},{"address":"山西省晋中市太谷县梅苑山庄四合院","areaName":"","city":"晋中市","company":"晋中市梅苑山庄充电站","connectorType":1,"currentType":1,"freeNum":0,"id":"ceed936f-9eb0-4219-a260-24053e895fa7","images":null,"isGs":0,"lat":37.431408,"link":0,"lng":112.848442,"mapIcon":"","maxOutPower":0,"operatorTypes":"4","payType":"","phone":"","plugType":2,"priceRational":999999,"province":"山西省","quantity":1,"score":0,"serviceCode":0,"standard":1,"status":0,"supportOrder":0},{"address":"山西省晋中市太谷县梅苑山庄四合院停车场","areaName":"","city":"晋中市","company":"晋中市梅苑山庄四合院充电站","connectorType":1,"currentType":2,"freeNum":0,"id":"d6a0664b-f93f-433a-a592-4a96487f7bf4","images":null,"isGs":0,"lat":37.431408,"link":0,"lng":112.848442,"mapIcon":"","maxOutPower":0,"operatorTypes":"4","payType":"","phone":"","plugType":2,"priceRational":999999,"province":"山西省","quantity":3,"score":0,"serviceCode":0,"standard":1,"status":0,"supportOrder":0},{"address":"山西省运城市永济市黄河广场西南88米","areaName":"","city":"运城市","company":"永济昌盛生态园充电站","connectorType":1,"currentType":3,"freeNum":0,"id":"5bf4afe6-47cd-4b09-9136-cafcff4ce3b5","images":null,"isGs":0,"lat":34.845021,"link":0,"lng":110.294878,"mapIcon":"","maxOutPower":0,"operatorTypes":"4","payType":"","phone":"","plugType":2,"priceRational":999999,"province":"山西省","quantity":5,"score":0,"serviceCode":0,"standard":1,"status":0,"supportOrder":0},{"address":"河北省邢台市清河县挥公大道","areaName":"","city":"邢台市","company":"邢台清河御捷北厂充电站","connectorType":1,"currentType":3,"freeNum":0,"id":"85aecc42-289d-4cc5-a742-6ee7d31fae8d","images":null,"isGs":0,"lat":37.042192,"link":0,"lng":115.609447,"mapIcon":"","maxOutPower":0,"operatorTypes":"4","payType":"","phone":"","plugType":2,"priceRational":999999,"province":"河北省","quantity":6,"score":0,"serviceCode":0,"standard":1,"status":0,"supportOrder":0},{"address":"山西省吕梁市孝义市府前大街与迎宾路","areaName":"","city":"吕梁市","company":"孝义旅游实业公司充电站","connectorType":1,"currentType":3,"freeNum":0,"id":"4297bd90-babf-4691-a1f4-187d5022a529","images":null,"isGs":0,"lat":37.147547,"link":0,"lng":111.791975,"mapIcon":"","maxOutPower":0,"operatorTypes":"4","payType":"","phone":"","plugType":2,"priceRational":999999,"province":"山西省","quantity":3,"score":0,"serviceCode":0,"standard":1,"status":0,"supportOrder":0},{"address":"山西省晋中市祁县山西省晋中市榆次区迎宾街270号地下停车场","areaName":"","city":"晋中市","company":"晋中御璟家居充电站","connectorType":1,"currentType":3,"freeNum":0,"id":"0f8641cb-34a1-4aeb-9f8f-0831406919bd","images":null,"isGs":0,"lat":37.409189,"link":0,"lng":112.42865,"mapIcon":"","maxOutPower":0,"operatorTypes":"4","payType":"","phone":"","plugType":2,"priceRational":999999,"province":"山西省","quantity":10,"score":0,"serviceCode":0,"standard":1,"status":0,"supportOrder":0},{"address":"山东省枣庄市滕州市平行南路大宗集团总部","areaName":"","city":"枣庄市","company":"滕州大宗集团充电站","connectorType":1,"currentType":3,"freeNum":0,"id":"51ad776b-e343-48ad-bdfd-9f912da9194a","images":null,"isGs":0,"lat":34.916146,"link":0,"lng":117.11374,"mapIcon":"","maxOutPower":0,"operatorTypes":"4","payType":"","phone":"","plugType":2,"priceRational":999999,"province":"山东省","quantity":3,"score":0,"serviceCode":0,"standard":1,"status":0,"supportOrder":0},{"address":"山西省晋中市榆次区晋中市榆次区长凝镇王庄村旁云泉谷","areaName":"","city":"晋中市","company":"晋中云泉谷漂流充电站","connectorType":1,"currentType":2,"freeNum":0,"id":"50612263-be84-495a-9acf-0e0b3019f3be","images":null,"isGs":0,"lat":37.565748,"link":0,"lng":113.004323,"mapIcon":"","maxOutPower":0,"operatorTypes":"4","payType":"","phone":"","plugType":2,"priceRational":999999,"province":"山西省","quantity":2,"score":0,"serviceCode":0,"standard":1,"status":0,"supportOrder":0},{"address":"山东省枣庄市滕州市平行南路大宗集团中心广场","areaName":"","city":"枣庄市","company":"滕州大宗广场充电站","connectorType":1,"currentType":3,"freeNum":0,"id":"122359ac-c46f-4706-a99d-d0b81878e5b8","images":null,"isGs":0,"lat":34.91415,"link":0,"lng":117.119847,"mapIcon":"","maxOutPower":0,"operatorTypes":"4","payType":"","phone":"","plugType":2,"priceRational":999999,"province":"山东省","quantity":3,"score":0,"serviceCode":0,"standard":1,"status":0,"supportOrder":0},{"address":"山东省枣庄市滕州市平行南路大宗集团生物公司","areaName":"","city":"枣庄市","company":"滕州大宗生物充电站","connectorType":1,"currentType":3,"freeNum":0,"id":"81f8225d-f305-400a-ba68-b9d53b130339","images":null,"isGs":0,"lat":34.923134,"link":0,"lng":117.121068,"mapIcon":"","maxOutPower":0,"operatorTypes":"4","payType":"","phone":"","plugType":2,"priceRational":999999,"province":"山东省","quantity":3,"score":0,"serviceCode":0,"standard":1,"status":0,"supportOrder":0},{"address":"山西省晋中市榆次区长凝镇王庄村旁云泉谷门口","areaName":"","city":"晋中市","company":"晋中云泉谷漂流二期充电站","connectorType":1,"currentType":1,"freeNum":0,"id":"af1ba2d8-979f-4ed1-872b-a3bd2841ea93","images":null,"isGs":0,"lat":37.57201,"link":0,"lng":113.01159,"mapIcon":"","maxOutPower":0,"operatorTypes":"4","payType":"","phone":"","plugType":2,"priceRational":999999,"province":"山西省","quantity":5,"score":0,"serviceCode":0,"standard":1,"status":0,"supportOrder":0},{"address":"江苏省徐州市铜山区G310(连天线)G310(连天线)","areaName":"","city":"徐州市","company":"徐州喜良缘酒店充电站","connectorType":1,"currentType":3,"freeNum":0,"id":"f472729d-7039-41cb-9261-7958b79f6aa4","images":null,"isGs":0,"lat":34.284548,"link":0,"lng":117.064346,"mapIcon":"","maxOutPower":0,"operatorTypes":"4","payType":"","phone":"","plugType":2,"priceRational":999999,"province":"江苏省","quantity":3,"score":0,"serviceCode":0,"standard":1,"status":0,"supportOrder":0},{"address":"湖北省襄阳市襄州区217省道西50米","areaName":"","city":"襄阳市","company":"襄阳乾通物流充电站","connectorType":1,"currentType":3,"freeNum":0,"id":"c46d9ad9-575c-4e95-8951-3233cd9a4d6a","images":null,"isGs":0,"lat":32.165623,"link":0,"lng":112.215467,"mapIcon":"","maxOutPower":0,"operatorTypes":"4","payType":"","phone":"","plugType":2,"priceRational":999999,"province":"湖北省","quantity":7,"score":0,"serviceCode":0,"standard":1,"status":0,"supportOrder":0},{"address":"江苏省徐州市铜山区大彭镇鑫梦家园","areaName":"","city":"徐州市","company":"徐州鑫梦家园充电站","connectorType":1,"currentType":3,"freeNum":0,"id":"49a1eea0-ff24-4d09-a88e-8e6d981188f8","images":null,"isGs":0,"lat":34.279245,"link":0,"lng":117.074951,"mapIcon":"","maxOutPower":0,"operatorTypes":"4","payType":"","phone":"","plugType":2,"priceRational":999999,"province":"江苏省","quantity":32,"score":0,"serviceCode":0,"standard":1,"status":0,"supportOrder":0},{"address":"江苏省徐州市铜山区X308X308","areaName":"","city":"徐州市","company":"徐州汉王虎腰山别墅区充电站","connectorType":1,"currentType":3,"freeNum":0,"id":"188b301a-05cf-49ff-8075-c94b425fbeaf","images":null,"isGs":0,"lat":34.205839,"link":0,"lng":117.063986,"mapIcon":"","maxOutPower":0,"operatorTypes":"4","payType":"","phone":"","plugType":2,"priceRational":999999,"province":"江苏省","quantity":12,"score":0,"serviceCode":0,"standard":1,"status":0,"supportOrder":0},{"address":"江苏省徐州市铜山区Y502","areaName":"","city":"徐州市","company":"徐州铜山汉王新河矿充电站","connectorType":1,"currentType":3,"freeNum":0,"id":"f3d2695f-6611-4f15-9c04-ffdfe7ff91ef","images":null,"isGs":0,"lat":34.233699,"link":0,"lng":117.077261,"mapIcon":"","maxOutPower":0,"operatorTypes":"4","payType":"","phone":"","plugType":2,"priceRational":999999,"province":"江苏省","quantity":32,"score":0,"serviceCode":0,"standard":1,"status":0,"supportOrder":0},{"address":"江苏省徐州市铜山区徐州铜山大彭镇老味绝（310国道边）","areaName":"","city":"徐州市","company":"徐州老味绝充电站","connectorType":1,"currentType":3,"freeNum":0,"id":"330d71d9-d821-4a42-a5fc-5581074108b6","images":null,"isGs":0,"lat":34.256151,"link":0,"lng":117.084697,"mapIcon":"","maxOutPower":0,"operatorTypes":"4","payType":"","phone":"","plugType":2,"priceRational":999999,"province":"江苏省","quantity":12,"score":0,"serviceCode":0,"standard":1,"status":0,"supportOrder":0},{"address":"江苏省徐州市铜山区X305迎宾路","areaName":"","city":"徐州市","company":"徐州展晨宾馆充电站","connectorType":1,"currentType":3,"freeNum":0,"id":"bdded482-a115-4b9c-9e57-b37db43a0311","images":null,"isGs":0,"lat":34.361566,"link":0,"lng":117.111155,"mapIcon":"","maxOutPower":0,"operatorTypes":"4","payType":"","phone":"","plugType":2,"priceRational":999999,"province":"江苏省","quantity":8,"score":0,"serviceCode":0,"standard":1,"status":0,"supportOrder":0},{"address":"山东省枣庄市滕州市学院西路3号","areaName":"","city":"枣庄市","company":"滕州农业局充电站","connectorType":1,"currentType":3,"freeNum":0,"id":"4e692b98-e4ea-4341-a689-5b1ee494a8f9","images":null,"isGs":0,"lat":35.09643,"link":0,"lng":117.1445,"mapIcon":"","maxOutPower":0,"operatorTypes":"4","payType":"","phone":"","plugType":2,"priceRational":999999,"province":"山东省","quantity":5,"score":0,"serviceCode":0,"standard":1,"status":0,"supportOrder":0},{"address":"江苏省徐州市泉山区G311(徐峡线)","areaName":"","city":"徐州市","company":"徐州雨润四大中心综合办楼充电站","connectorType":1,"currentType":1,"freeNum":0,"id":"f22f7f40-aeb7-46ed-8c56-85ed6678d091","images":null,"isGs":0,"lat":34.260234,"link":0,"lng":117.097643,"mapIcon":"","maxOutPower":0,"operatorTypes":"4","payType":"","phone":"","plugType":2,"priceRational":999999,"province":"江苏省","quantity":5,"score":0,"serviceCode":0,"standard":1,"status":0,"supportOrder":0},{"address":"江苏省徐州市泉山区G311(徐峡线)","areaName":"","city":"徐州市","company":"徐州雨润水果市场二层西区充电站","connectorType":1,"currentType":3,"freeNum":0,"id":"0725e0de-aae2-4d72-b24a-c6c2917ef737","images":null,"isGs":0,"lat":34.259078,"link":0,"lng":117.098546,"mapIcon":"","maxOutPower":0,"operatorTypes":"4","payType":"","phone":"","plugType":2,"priceRational":999999,"province":"江苏省","quantity":35,"score":0,"serviceCode":0,"standard":1,"status":0,"supportOrder":0},{"address":"江苏省徐州市泉山区G311(徐峡线)","areaName":"","city":"徐州市","company":"徐州月河宾馆充电站","connectorType":1,"currentType":3,"freeNum":0,"id":"cb27aff0-9c77-4198-80ca-822dfe584983","images":null,"isGs":0,"lat":34.264292,"link":0,"lng":117.100268,"mapIcon":"","maxOutPower":0,"operatorTypes":"4","payType":"","phone":"","plugType":2,"priceRational":999999,"province":"江苏省","quantity":9,"score":0,"serviceCode":0,"standard":1,"status":0,"supportOrder":0},{"address":"江苏省徐州市泉山区G311(徐峡线)","areaName":"","city":"徐州市","company":"徐州其超物流充电站","connectorType":1,"currentType":3,"freeNum":0,"id":"bf5d7c13-e7df-4b10-9a5c-b4a45e1f21f0","images":null,"isGs":0,"lat":34.264778,"link":0,"lng":117.101185,"mapIcon":"","maxOutPower":0,"operatorTypes":"4","payType":"","phone":"","plugType":2,"priceRational":999999,"province":"江苏省","quantity":16,"score":0,"serviceCode":0,"standard":1,"status":0,"supportOrder":0},{"address":"江苏省徐州市泉山区火花路","areaName":"","city":"徐州市","company":"徐州雨润水果市场二层东区充电站","connectorType":1,"currentType":3,"freeNum":0,"id":"06571858-571e-45b0-82dc-66847a0041b4","images":null,"isGs":0,"lat":34.259041,"link":0,"lng":117.101954,"mapIcon":"","maxOutPower":0,"operatorTypes":"4","payType":"","phone":"","plugType":2,"priceRational":999999,"province":"江苏省","quantity":19,"score":0,"serviceCode":0,"standard":1,"status":0,"supportOrder":0},{"address":"山东省泰安市肥城市汶阳汽车站","areaName":"","city":"泰安市","company":"肥城汶阳充电站","connectorType":1,"currentType":3,"freeNum":0,"id":"ea87a768-7821-4e5c-84ed-18dbfbc81bd0","images":null,"isGs":0,"lat":35.95898,"link":0,"lng":116.881014,"mapIcon":"","maxOutPower":0,"operatorTypes":"9","payType":"","phone":"","plugType":2,"priceRational":999999,"province":"山东省","quantity":10,"score":0,"serviceCode":0,"standard":1,"status":0,"supportOrder":0},{"address":"湖北省襄阳市襄州区深圳工业园襄阳大道B316-5号","areaName":"","city":"襄阳市","company":"襄阳承鼎吉利4S店充电站","connectorType":1,"currentType":3,"freeNum":0,"id":"89f050a5-03ae-4aa9-acb5-f57759e1172f","images":null,"isGs":0,"lat":32.115228,"link":0,"lng":112.248776,"mapIcon":"","maxOutPower":0,"operatorTypes":"4","payType":"","phone":"","plugType":2,"priceRational":999999,"province":"湖北省","quantity":4,"score":0,"serviceCode":0,"standard":1,"status":0,"supportOrder":0},{"address":"湖北省襄阳市襄州区新星路高新区汽车工业园新星路5号","areaName":"","city":"襄阳市","company":"襄阳骆驼电池宇清新厂充电站","connectorType":1,"currentType":3,"freeNum":0,"id":"50046d27-263e-41a8-aaf0-b31bf01c41a6","images":null,"isGs":0,"lat":32.143689,"link":0,"lng":112.168396,"mapIcon":"","maxOutPower":0,"operatorTypes":"4","payType":"","phone":"","plugType":2,"priceRational":999999,"province":"湖北省","quantity":20,"score":0,"serviceCode":0,"standard":1,"status":0,"supportOrder":0},{"address":"江苏省徐州市泉山区徐州泉山区开元四季开元路西200米丰轮汽车停车场","areaName":"","city":"徐州市","company":"徐州丰轮汽车服务充电站","connectorType":1,"currentType":3,"freeNum":0,"id":"efa6fc5d-8186-4a51-a011-585dcf855d36","images":null,"isGs":0,"lat":34.244681,"link":0,"lng":117.123155,"mapIcon":"","maxOutPower":0,"operatorTypes":"4","payType":"","phone":"","plugType":2,"priceRational":999999,"province":"江苏省","quantity":7,"score":0,"serviceCode":0,"standard":1,"status":0,"supportOrder":0},{"address":"江苏省徐州市泉山区江苏省徐州市泉山区三环路163号","areaName":"","city":"徐州市","company":"徐州跑马汤旗舰店充电站","connectorType":1,"currentType":3,"freeNum":0,"id":"f6c12fce-dfd8-4bb8-80e2-f480a20da6d8","images":null,"isGs":0,"lat":34.236847,"link":0,"lng":117.124781,"mapIcon":"","maxOutPower":0,"operatorTypes":"4","payType":"","phone":"","plugType":2,"priceRational":999999,"province":"江苏省","quantity":6,"score":0,"serviceCode":0,"standard":1,"status":0,"supportOrder":0},{"address":"江苏省徐州市泉山区玉带大道9号","areaName":"","city":"徐州市","company":"徐州乐园充电站","connectorType":1,"currentType":3,"freeNum":0,"id":"8519f58b-9064-4130-a9bc-b7647748615a","images":null,"isGs":0,"lat":34.226259,"link":0,"lng":117.127194,"mapIcon":"","maxOutPower":0,"operatorTypes":"4","payType":"","phone":"","plugType":2,"priceRational":999999,"province":"江苏省","quantity":22,"score":0,"serviceCode":0,"standard":1,"status":0,"supportOrder":0},{"address":"江苏省徐州市泉山区民安路","areaName":"","city":"徐州市","company":"徐州西苑三小充电站","connectorType":1,"currentType":2,"freeNum":0,"id":"ffd33f7f-15a0-4329-bbc6-b62840511ce0","images":null,"isGs":0,"lat":34.270968,"link":0,"lng":117.142196,"mapIcon":"","maxOutPower":0,"operatorTypes":"4","payType":"","phone":"","plugType":2,"priceRational":999999,"province":"江苏省","quantity":10,"score":0,"serviceCode":0,"standard":1,"status":0,"supportOrder":0},{"address":"山东省枣庄市滕州市学院路东首","areaName":"","city":"枣庄市","company":"滕州宾馆（市接待中心）充电站","connectorType":1,"currentType":3,"freeNum":0,"id":"464aec2b-a72f-4094-9b1f-527fb8b764da","images":null,"isGs":0,"lat":35.101089,"link":0,"lng":117.19358,"mapIcon":"","maxOutPower":0,"operatorTypes":"4","payType":"","phone":"","plugType":2,"priceRational":999999,"province":"山东省","quantity":6,"score":0,"serviceCode":0,"standard":1,"status":0,"supportOrder":0},{"address":"江苏省徐州市铜山区竹海生态园酒店停车场","areaName":"","city":"徐州市","company":"徐州竹海生态园充电站","connectorType":1,"currentType":1,"freeNum":0,"id":"c1ab3739-ad60-44e1-b69c-74bd5f90d84b","images":null,"isGs":0,"lat":34.202814,"link":0,"lng":117.13364,"mapIcon":"","maxOutPower":0,"operatorTypes":"4","payType":"","phone":"","plugType":2,"priceRational":999999,"province":"江苏省","quantity":5,"score":0,"serviceCode":0,"standard":1,"status":0,"supportOrder":0},{"address":"江苏省徐州市泉山区如意路","areaName":"","city":"徐州市","company":"徐州云龙湖滨湖西街充电站","connectorType":1,"currentType":3,"freeNum":0,"id":"6d4ad48c-44ee-4929-9eb1-3dcd539154e5","images":null,"isGs":0,"lat":34.247052,"link":0,"lng":117.149285,"mapIcon":"","maxOutPower":0,"operatorTypes":"4","payType":"","phone":"","plugType":2,"priceRational":999999,"province":"江苏省","quantity":7,"score":0,"serviceCode":0,"standard":1,"status":0,"supportOrder":0},{"address":"山西省吕梁市汾阳市吕梁汾阳市英雄北路北口","areaName":"","city":"吕梁市","company":"吕梁汾阳宾馆充电站","connectorType":1,"currentType":3,"freeNum":0,"id":"481e2675-2cc1-4bad-86e6-f24bc08cef8a","images":null,"isGs":0,"lat":37.283589,"link":0,"lng":111.79073,"mapIcon":"","maxOutPower":0,"operatorTypes":"4","payType":"","phone":"","plugType":2,"priceRational":999999,"province":"山西省","quantity":8,"score":0,"serviceCode":0,"standard":1,"status":0,"supportOrder":0},{"address":"江苏省徐州市泉山区湖南路湖南路南湖水街","areaName":"","city":"徐州市","company":"徐州南湖水街充电站","connectorType":1,"currentType":3,"freeNum":0,"id":"9ee85703-f74c-43eb-bee7-783367e29185","images":null,"isGs":0,"lat":34.230595,"link":0,"lng":117.156333,"mapIcon":"","maxOutPower":0,"operatorTypes":"4","payType":"","phone":"","plugType":2,"priceRational":999999,"province":"江苏省","quantity":10,"score":0,"serviceCode":0,"standard":1,"status":0,"supportOrder":0},{"address":"江苏省徐州市泉山区江苏省徐州市泉山区淮海西路252号","areaName":"","city":"徐州市","company":"徐州海天假日酒店充电站","connectorType":1,"currentType":1,"freeNum":0,"id":"84a46d99-201a-4db2-8d21-9d087d23c496","images":null,"isGs":0,"lat":34.263645,"link":0,"lng":117.166456,"mapIcon":"","maxOutPower":0,"operatorTypes":"4","payType":"","phone":"","plugType":2,"priceRational":999999,"province":"江苏省","quantity":4,"score":0,"serviceCode":0,"standard":1,"status":0,"supportOrder":0},{"address":"江苏省徐州市泉山区滨湖新天地步行街","areaName":"","city":"徐州市","company":"徐州云龙湖滨湖东街充电站","connectorType":1,"currentType":3,"freeNum":0,"id":"f281270e-5b66-4bf4-be5c-111810b13708","images":null,"isGs":0,"lat":34.246044,"link":0,"lng":117.17463,"mapIcon":"","maxOutPower":0,"operatorTypes":"4","payType":"","phone":"","plugType":2,"priceRational":999999,"province":"江苏省","quantity":8,"score":0,"serviceCode":0,"standard":1,"status":0,"supportOrder":0},{"address":"湖北省襄阳市襄州区春园东路襄阳汽车城","areaName":"","city":"襄阳市","company":"襄阳天润汽车城充电站","connectorType":1,"currentType":1,"freeNum":0,"id":"7b181909-e671-4c54-b10f-75a68eb7aac4","images":null,"isGs":0,"lat":32.082171,"link":0,"lng":112.166043,"mapIcon":"","maxOutPower":0,"operatorTypes":"4","payType":"","phone":"","plugType":2,"priceRational":999999,"province":"湖北省","quantity":2,"score":0,"serviceCode":0,"standard":1,"status":0,"supportOrder":0},{"address":"江苏省徐州市铜山区江苏省徐州市铜山区嵩山路","areaName":"","city":"徐州市","company":"徐州海宁皮草城充电站","connectorType":1,"currentType":1,"freeNum":0,"id":"a9b80b4f-6dd2-4544-a631-c05ccfbeee70","images":null,"isGs":0,"lat":34.18608,"link":0,"lng":117.165504,"mapIcon":"","maxOutPower":0,"operatorTypes":"4","payType":"","phone":"","plugType":2,"priceRational":999999,"province":"江苏省","quantity":2,"score":0,"serviceCode":0,"standard":1,"status":0,"supportOrder":0},{"address":"江苏省徐州市云龙区马市街115号","areaName":"","city":"徐州市","company":"徐州云龙区九州文博宫充电站","connectorType":1,"currentType":3,"freeNum":0,"id":"b90f9944-d4a1-431d-8467-bf037b38d298","images":null,"isGs":0,"lat":34.257324,"link":0,"lng":117.190552,"mapIcon":"","maxOutPower":0,"operatorTypes":"4","payType":"","phone":"","plugType":2,"priceRational":999999,"province":"江苏省","quantity":16,"score":0,"serviceCode":0,"standard":1,"status":0,"supportOrder":0},{"address":"江苏省徐州市泉山区金山东路驿佳仁宾馆门口停车场","areaName":"","city":"徐州市","company":"徐州驿佳仁酒店充电站","connectorType":1,"currentType":3,"freeNum":0,"id":"f7e542f8-69d3-4761-aa52-87b6b4da1fdd","images":null,"isGs":0,"lat":34.221943,"link":0,"lng":117.183629,"mapIcon":"","maxOutPower":0,"operatorTypes":"4","payType":"","phone":"","plugType":2,"priceRational":999999,"province":"江苏省","quantity":6,"score":0,"serviceCode":0,"standard":1,"status":0,"supportOrder":0},{"address":"江苏省徐州市云龙区青年路117号","areaName":"","city":"徐州市","company":"徐州市老街坊充电站","connectorType":1,"currentType":3,"freeNum":0,"id":"95ccfa7e-b2d7-420d-b8dc-7c13b31e9ab1","images":null,"isGs":0,"lat":34.261862,"link":0,"lng":117.19759,"mapIcon":"","maxOutPower":0,"operatorTypes":"4","payType":"","phone":"","plugType":2,"priceRational":999999,"province":"江苏省","quantity":21,"score":0,"serviceCode":0,"standard":1,"status":0,"supportOrder":0},{"address":"湖北省襄阳市樊城区襄阳长虹北路56号","areaName":"","city":"襄阳市","company":"襄阳长虹观邸充电站","connectorType":1,"currentType":3,"freeNum":0,"id":"dd298f12-8fe5-4e30-8eab-144e42561948","images":null,"isGs":0,"lat":32.08092,"link":0,"lng":112.13436,"mapIcon":"","maxOutPower":0,"operatorTypes":"4","payType":"","phone":"","plugType":2,"priceRational":999999,"province":"湖北省","quantity":16,"score":0,"serviceCode":0,"standard":1,"status":0,"supportOrder":0},{"address":"江苏省徐州市鼓楼区殷庄路","areaName":"","city":"徐州市","company":"徐州泽通检测站充电站","connectorType":1,"currentType":3,"freeNum":0,"id":"27bafc0e-4850-404e-b80c-de069d96af38","images":null,"isGs":0,"lat":34.315433,"link":0,"lng":117.214348,"mapIcon":"","maxOutPower":0,"operatorTypes":"4","payType":"","phone":"","plugType":2,"priceRational":999999,"province":"江苏省","quantity":12,"score":0,"serviceCode":0,"standard":1,"status":0,"supportOrder":0},{"address":"江苏省徐州市铜山区江苏省徐州市铜山区赣江路9号","areaName":"","city":"徐州市","company":"徐州源信汽修充电站","connectorType":1,"currentType":3,"freeNum":0,"id":"92e1b1f5-eb0c-49ed-812d-995263c2fa76","images":null,"isGs":0,"lat":34.177722,"link":0,"lng":117.187668,"mapIcon":"","maxOutPower":0,"operatorTypes":"4","payType":"","phone":"","plugType":2,"priceRational":999999,"province":"江苏省","quantity":6,"score":0,"serviceCode":0,"standard":1,"status":0,"supportOrder":0},{"address":"江苏省徐州市铜山区江苏省徐州市铜山区海河东路7-1号","areaName":"","city":"徐州市","company":"铜山华翔电力充电站","connectorType":1,"currentType":3,"freeNum":0,"id":"86f0dab0-6023-492a-8353-518db974a46c","images":null,"isGs":0,"lat":34.19236,"link":0,"lng":117.193352,"mapIcon":"","maxOutPower":0,"operatorTypes":"4","payType":"","phone":"","plugType":2,"priceRational":999999,"province":"江苏省","quantity":10,"score":0,"serviceCode":0,"standard":1,"status":0,"supportOrder":0},{"address":"江苏省徐州市铜山区天津路30号","areaName":"","city":"徐州市","company":"徐州顺大汽修充电站","connectorType":1,"currentType":3,"freeNum":0,"id":"80e199b3-5b90-4d94-bb5b-7dfd72039a05","images":null,"isGs":0,"lat":34.193611,"link":0,"lng":117.195604,"mapIcon":"","maxOutPower":0,"operatorTypes":"4","payType":"","phone":"","plugType":2,"priceRational":999999,"province":"江苏省","quantity":6,"score":0,"serviceCode":0,"standard":1,"status":0,"supportOrder":0},{"address":"湖北省襄阳市樊城区高新区中原路52号","areaName":"","city":"襄阳市","company":"襄阳中国铁塔充电站","connectorType":1,"currentType":3,"freeNum":0,"id":"f1530caa-de5c-42b0-82b6-fee38b7caa7c","images":null,"isGs":0,"lat":32.065763,"link":0,"lng":112.139839,"mapIcon":"","maxOutPower":0,"operatorTypes":"4","payType":"","phone":"","plugType":2,"priceRational":999999,"province":"湖北省","quantity":2,"score":0,"serviceCode":0,"standard":1,"status":0,"supportOrder":0},{"address":"江苏省徐州市鼓楼区下淀路176号","areaName":"","city":"徐州市","company":"徐州百顺汽车服务充电站","connectorType":1,"currentType":3,"freeNum":0,"id":"ab509c09-a176-4c5e-b515-aad6162e7763","images":null,"isGs":0,"lat":34.287416,"link":0,"lng":117.225589,"mapIcon":"","maxOutPower":0,"operatorTypes":"4","payType":"","phone":"","plugType":2,"priceRational":999999,"province":"江苏省","quantity":8,"score":0,"serviceCode":0,"standard":1,"status":0,"supportOrder":0},{"address":"湖北省襄阳市樊城区万州大道GS16","areaName":"","city":"襄阳市","company":"襄阳新合作食品城物流车充电站","connectorType":1,"currentType":3,"freeNum":0,"id":"be5f987b-d757-4f8b-8fa5-42c3562fc1a8","images":null,"isGs":0,"lat":32.095236,"link":0,"lng":112.045756,"mapIcon":"","maxOutPower":0,"operatorTypes":"4","payType":"","phone":"","plugType":2,"priceRational":999999,"province":"湖北省","quantity":100,"score":0,"serviceCode":0,"standard":1,"status":0,"supportOrder":0},